{
  "type": "FeatureCollection",
  "features": [
    {
      "type": "feature",
      "geometry": {
        "type": "point",
        "coordinates": [
          120.343235,
          22.624913
        ]
      },
      "properties": {
        "name": "建軍站(捷運衛武營站)",
        "name_eng": "Jianjun Station (MRT Weiwuying Station)"
      }
    },
    {
      "type": "feature",
      "geometry": {
        "type": "point",
        "coordinates": [
          120.343235,
          22.624913
        ]
      },
      "properties": {
        "name": "建軍站(捷運衛武營站)",
        "name_eng": "Jianjun Station (MRT Weiwuying Station)"
      }
    },
    {
      "type": "feature",
      "geometry": {
        "type": "point",
        "coordinates": [
          120.33391,
          22.623697
        ]
      },
      "properties": {
        "name": "輔仁路口(三多一路)",
        "name_eng": "Furen Rd. Intersection (Sanduo 1st Rd.)"
      }
    },
    {
      "type": "feature",
      "geometry": {
        "type": "point",
        "coordinates": [
          120.35523,
          22.56996
        ]
      },
      "properties": {
        "name": "金府路口",
        "name_eng": "Jinfu Rd. Intersection"
      }
    },
    {
      "type": "feature",
      "geometry": {
        "type": "point",
        "coordinates": [
          120.355192,
          22.569978
        ]
      },
      "properties": {
        "name": "金府路口",
        "name_eng": "Jinfu Rd. Intersection"
      }
    },
    {
      "type": "feature",
      "geometry": {
        "type": "point",
        "coordinates": [
          120.351577,
          22.569839
        ]
      },
      "properties": {
        "name": "宏平路",
        "name_eng": "Hongping Rd."
      }
    },
    {
      "type": "feature",
      "geometry": {
        "type": "point",
        "coordinates": [
          120.35133,
          22.569847
        ]
      },
      "properties": {
        "name": "宏平路",
        "name_eng": "Hongping Rd."
      }
    },
    {
      "type": "feature",
      "geometry": {
        "type": "point",
        "coordinates": [
          120.341492,
          22.628753
        ]
      },
      "properties": {
        "name": "建軍路口",
        "name_eng": "Jianjun Rd. Intersection"
      }
    },
    {
      "type": "feature",
      "geometry": {
        "type": "point",
        "coordinates": [
          120.341492,
          22.628753
        ]
      },
      "properties": {
        "name": "建軍路口",
        "name_eng": "Jianjun Rd. Intersection"
      }
    },
    {
      "type": "feature",
      "geometry": {
        "type": "point",
        "coordinates": [
          120.321741,
          22.679533
        ]
      },
      "properties": {
        "name": "榮總側門",
        "name_eng": "Side Entrance to Kaohsiung Veterans General Hospital"
      }
    },
    {
      "type": "feature",
      "geometry": {
        "type": "point",
        "coordinates": [
          120.341492,
          22.628753
        ]
      },
      "properties": {
        "name": "建軍路口",
        "name_eng": "Jianjun Rd. Intersection"
      }
    },
    {
      "type": "feature",
      "geometry": {
        "type": "point",
        "coordinates": [
          120.344206,
          22.565633
        ]
      },
      "properties": {
        "name": "小港分局",
        "name_eng": "Siaogang Precinct"
      }
    },
    {
      "type": "feature",
      "geometry": {
        "type": "point",
        "coordinates": [
          120.344228,
          22.565731
        ]
      },
      "properties": {
        "name": "小港分局",
        "name_eng": "Siaogang Precinct"
      }
    },
    {
      "type": "feature",
      "geometry": {
        "type": "point",
        "coordinates": [
          120.320408,
          22.629493
        ]
      },
      "properties": {
        "name": "五福中正路口",
        "name_eng": "Wufu Jhongjheng Rd. Intersection"
      }
    },
    {
      "type": "feature",
      "geometry": {
        "type": "point",
        "coordinates": [
          120.343459,
          22.596493
        ]
      },
      "properties": {
        "name": "鳳甲二街",
        "name_eng": "Fongjia 2nd St."
      }
    },
    {
      "type": "feature",
      "geometry": {
        "type": "point",
        "coordinates": [
          120.340032,
          22.595065
        ]
      },
      "properties": {
        "name": "鳳翔國小",
        "name_eng": "Fong Siang Elementary School"
      }
    },
    {
      "type": "feature",
      "geometry": {
        "type": "point",
        "coordinates": [
          120.60593,
          23.11258
        ]
      },
      "properties": {
        "name": "關山里",
        "name_eng": "Guanshan Village"
      }
    },
    {
      "type": "feature",
      "geometry": {
        "type": "point",
        "coordinates": [
          120.32292,
          22.580596
        ]
      },
      "properties": {
        "name": "北草衙",
        "name_eng": "North Caoya"
      }
    },
    {
      "type": "feature",
      "geometry": {
        "type": "point",
        "coordinates": [
          120.333909,
          22.623697
        ]
      },
      "properties": {
        "name": "輔仁路口(三多一路)",
        "name_eng": "Furen Rd. Intersection (Sanduo 1st Rd.)"
      }
    },
    {
      "type": "feature",
      "geometry": {
        "type": "point",
        "coordinates": [
          120.337071,
          22.599546
        ]
      },
      "properties": {
        "name": "鳳南路",
        "name_eng": "Fengnan Rd."
      }
    },
    {
      "type": "feature",
      "geometry": {
        "type": "point",
        "coordinates": [
          120.33406,
          22.605746
        ]
      },
      "properties": {
        "name": "永豐路口",
        "name_eng": "Yongfong Rd. Intersection"
      }
    },
    {
      "type": "feature",
      "geometry": {
        "type": "point",
        "coordinates": [
          120.333962,
          22.603437
        ]
      },
      "properties": {
        "name": "永豐崗山南街口",
        "name_eng": "Yongfong Gangshan S. St. Intersection"
      }
    },
    {
      "type": "feature",
      "geometry": {
        "type": "point",
        "coordinates": [
          120.323503,
          22.605692
        ]
      },
      "properties": {
        "name": "輕軌籬仔內站(一心一路)",
        "name_eng": "LRT Lizihnei Station (Yisin 1st Rd.)"
      }
    },
    {
      "type": "feature",
      "geometry": {
        "type": "point",
        "coordinates": [
          120.62438,
          22.88943
        ]
      },
      "properties": {
        "name": "苗圃",
        "name_eng": "Miao Pu"
      }
    },
    {
      "type": "feature",
      "geometry": {
        "type": "point",
        "coordinates": [
          120.321511,
          22.606544
        ]
      },
      "properties": {
        "name": "和平二路口",
        "name_eng": "Heping 2nd Rd. Intersection"
      }
    },
    {
      "type": "feature",
      "geometry": {
        "type": "point",
        "coordinates": [
          120.34428,
          22.5657
        ]
      },
      "properties": {
        "name": "小港分局",
        "name_eng": "Siaogang Precinct"
      }
    },
    {
      "type": "feature",
      "geometry": {
        "type": "point",
        "coordinates": [
          120.344228,
          22.565731
        ]
      },
      "properties": {
        "name": "小港分局",
        "name_eng": "Siaogang Precinct"
      }
    },
    {
      "type": "feature",
      "geometry": {
        "type": "point",
        "coordinates": [
          120.34431,
          22.565733
        ]
      },
      "properties": {
        "name": "小港分局",
        "name_eng": "Siaogang Precinct"
      }
    },
    {
      "type": "feature",
      "geometry": {
        "type": "point",
        "coordinates": [
          120.33804,
          22.56517
        ]
      },
      "properties": {
        "name": "小港行政中心",
        "name_eng": "Siaogang Administration Center"
      }
    },
    {
      "type": "feature",
      "geometry": {
        "type": "point",
        "coordinates": [
          120.338204,
          22.565111
        ]
      },
      "properties": {
        "name": "小港行政中心",
        "name_eng": "Siaogang Administration Center"
      }
    },
    {
      "type": "feature",
      "geometry": {
        "type": "point",
        "coordinates": [
          120.338225,
          22.565167
        ]
      },
      "properties": {
        "name": "小港行政中心",
        "name_eng": "Siaogang Administration Center"
      }
    },
    {
      "type": "feature",
      "geometry": {
        "type": "point",
        "coordinates": [
          120.33641,
          22.564301
        ]
      },
      "properties": {
        "name": "民眾服務站",
        "name_eng": "Public Service Station"
      }
    },
    {
      "type": "feature",
      "geometry": {
        "type": "point",
        "coordinates": [
          120.33391,
          22.623697
        ]
      },
      "properties": {
        "name": "輔仁路口(三多一路)",
        "name_eng": "Furen Rd. Intersection (Sanduo 1st Rd.)"
      }
    },
    {
      "type": "feature",
      "geometry": {
        "type": "point",
        "coordinates": [
          120.334471,
          22.563869
        ]
      },
      "properties": {
        "name": "小港路口",
        "name_eng": "Siaogang Rd. Intersection"
      }
    },
    {
      "type": "feature",
      "geometry": {
        "type": "point",
        "coordinates": [
          120.334535,
          22.563827
        ]
      },
      "properties": {
        "name": "小港路口",
        "name_eng": "Siaogang Rd. Intersection"
      }
    },
    {
      "type": "feature",
      "geometry": {
        "type": "point",
        "coordinates": [
          120.33463,
          22.56403
        ]
      },
      "properties": {
        "name": "小港路口",
        "name_eng": "Siaogang Rd. Intersection"
      }
    },
    {
      "type": "feature",
      "geometry": {
        "type": "point",
        "coordinates": [
          120.3334,
          22.56562
        ]
      },
      "properties": {
        "name": "小港天主教堂",
        "name_eng": "Siaogang Catholic Church"
      }
    },
    {
      "type": "feature",
      "geometry": {
        "type": "point",
        "coordinates": [
          120.333332,
          22.565517
        ]
      },
      "properties": {
        "name": "小港天主教堂",
        "name_eng": "Siaogang Catholic Church"
      }
    },
    {
      "type": "feature",
      "geometry": {
        "type": "point",
        "coordinates": [
          120.333428,
          22.565411
        ]
      },
      "properties": {
        "name": "小港天主教堂",
        "name_eng": "Siaogang Catholic Church"
      }
    },
    {
      "type": "feature",
      "geometry": {
        "type": "point",
        "coordinates": [
          120.332146,
          22.567113
        ]
      },
      "properties": {
        "name": "港後路口",
        "name_eng": "Ganghou Rd. Intersection"
      }
    },
    {
      "type": "feature",
      "geometry": {
        "type": "point",
        "coordinates": [
          120.303158,
          22.620211
        ]
      },
      "properties": {
        "name": "仁智街口",
        "name_eng": "Renjhih St. Intersection"
      }
    },
    {
      "type": "feature",
      "geometry": {
        "type": "point",
        "coordinates": [
          120.332044,
          22.567169
        ]
      },
      "properties": {
        "name": "港後路口",
        "name_eng": "Ganghou Rd. Intersection"
      }
    },
    {
      "type": "feature",
      "geometry": {
        "type": "point",
        "coordinates": [
          120.33219,
          22.56712
        ]
      },
      "properties": {
        "name": "港後路口",
        "name_eng": "Ganghou Rd. Intersection"
      }
    },
    {
      "type": "feature",
      "geometry": {
        "type": "point",
        "coordinates": [
          120.330931,
          22.568566
        ]
      },
      "properties": {
        "name": "平和路",
        "name_eng": "Pinghan Rd."
      }
    },
    {
      "type": "feature",
      "geometry": {
        "type": "point",
        "coordinates": [
          120.33093,
          22.568566
        ]
      },
      "properties": {
        "name": "平和路",
        "name_eng": "Pinghan Rd."
      }
    },
    {
      "type": "feature",
      "geometry": {
        "type": "point",
        "coordinates": [
          120.33093,
          22.568566
        ]
      },
      "properties": {
        "name": "平和路",
        "name_eng": "Pinghan Rd."
      }
    },
    {
      "type": "feature",
      "geometry": {
        "type": "point",
        "coordinates": [
          120.329713,
          22.5701
        ]
      },
      "properties": {
        "name": "金福路口(草衙三路)",
        "name_eng": "Jinfu Rd. Intersection (Caoya 3rd Rd.)"
      }
    },
    {
      "type": "feature",
      "geometry": {
        "type": "point",
        "coordinates": [
          120.329714,
          22.5701
        ]
      },
      "properties": {
        "name": "金福路口(草衙三路)",
        "name_eng": "Jinfu Rd. Intersection (Caoya 3rd Rd.)"
      }
    },
    {
      "type": "feature",
      "geometry": {
        "type": "point",
        "coordinates": [
          120.306481,
          22.621389
        ]
      },
      "properties": {
        "name": "青年一路",
        "name_eng": "Cingnian 1st Rd."
      }
    },
    {
      "type": "feature",
      "geometry": {
        "type": "point",
        "coordinates": [
          120.3298,
          22.57011
        ]
      },
      "properties": {
        "name": "金福路口(草衙三路)",
        "name_eng": "Jinfu Rd. Intersection (Caoya 3rd Rd.)"
      }
    },
    {
      "type": "feature",
      "geometry": {
        "type": "point",
        "coordinates": [
          120.324795,
          22.575883
        ]
      },
      "properties": {
        "name": "佛公",
        "name_eng": "Fogong"
      }
    },
    {
      "type": "feature",
      "geometry": {
        "type": "point",
        "coordinates": [
          120.324795,
          22.575883
        ]
      },
      "properties": {
        "name": "佛公",
        "name_eng": "Fogong"
      }
    },
    {
      "type": "feature",
      "geometry": {
        "type": "point",
        "coordinates": [
          120.324795,
          22.575883
        ]
      },
      "properties": {
        "name": "佛公",
        "name_eng": "Fogong"
      }
    },
    {
      "type": "feature",
      "geometry": {
        "type": "point",
        "coordinates": [
          120.310687,
          22.688942
        ]
      },
      "properties": {
        "name": "左營新光三越",
        "name_eng": "Shin Kong Mitsukoshi Department Store (Kaohsiung Zuoying)"
      }
    },
    {
      "type": "feature",
      "geometry": {
        "type": "point",
        "coordinates": [
          120.339111,
          22.629694
        ]
      },
      "properties": {
        "name": "建國一路",
        "name_eng": "Jianguo 1st Rd."
      }
    },
    {
      "type": "feature",
      "geometry": {
        "type": "point",
        "coordinates": [
          120.339111,
          22.629694
        ]
      },
      "properties": {
        "name": "建國一路",
        "name_eng": "Jianguo 1st Rd."
      }
    },
    {
      "type": "feature",
      "geometry": {
        "type": "point",
        "coordinates": [
          120.339111,
          22.629694
        ]
      },
      "properties": {
        "name": "建國一路",
        "name_eng": "Jianguo 1st Rd."
      }
    },
    {
      "type": "feature",
      "geometry": {
        "type": "point",
        "coordinates": [
          120.31735,
          22.57191
        ]
      },
      "properties": {
        "name": "漁業大樓",
        "name_eng": "Fisheries Building"
      }
    },
    {
      "type": "feature",
      "geometry": {
        "type": "point",
        "coordinates": [
          120.308775,
          22.622133
        ]
      },
      "properties": {
        "name": "國民市場",
        "name_eng": "Guomin Market"
      }
    },
    {
      "type": "feature",
      "geometry": {
        "type": "point",
        "coordinates": [
          120.31735,
          22.57191
        ]
      },
      "properties": {
        "name": "漁業大樓",
        "name_eng": "Fisheries Building"
      }
    },
    {
      "type": "feature",
      "geometry": {
        "type": "point",
        "coordinates": [
          120.32845,
          22.57995
        ]
      },
      "properties": {
        "name": "捷運草衙站",
        "name_eng": "MRT Caoya Station"
      }
    },
    {
      "type": "feature",
      "geometry": {
        "type": "point",
        "coordinates": [
          120.329002,
          22.579562
        ]
      },
      "properties": {
        "name": "捷運草衙站(翠亨南路)",
        "name_eng": "MRT Caoya Station (Cueiheng S. Rd.)"
      }
    },
    {
      "type": "feature",
      "geometry": {
        "type": "point",
        "coordinates": [
          120.323756,
          22.577058
        ]
      },
      "properties": {
        "name": "草衙",
        "name_eng": "Caoya"
      }
    },
    {
      "type": "feature",
      "geometry": {
        "type": "point",
        "coordinates": [
          120.272907,
          22.622481
        ]
      },
      "properties": {
        "name": "鼓山市場",
        "name_eng": "Gushan Market"
      }
    },
    {
      "type": "feature",
      "geometry": {
        "type": "point",
        "coordinates": [
          120.352994,
          22.650466
        ]
      },
      "properties": {
        "name": "長庚復健大樓",
        "name_eng": "Chang Gung Rehabilitation buil Ding"
      }
    },
    {
      "type": "feature",
      "geometry": {
        "type": "point",
        "coordinates": [
          120.361749,
          22.666655
        ]
      },
      "properties": {
        "name": "大仁北路",
        "name_eng": "Daren N. Rd."
      }
    },
    {
      "type": "feature",
      "geometry": {
        "type": "point",
        "coordinates": [
          120.360593,
          22.669514
        ]
      },
      "properties": {
        "name": "慈育街口",
        "name_eng": "Cihyu St. Intersection"
      }
    },
    {
      "type": "feature",
      "geometry": {
        "type": "point",
        "coordinates": [
          120.323755,
          22.577058
        ]
      },
      "properties": {
        "name": "草衙",
        "name_eng": "Caoya"
      }
    },
    {
      "type": "feature",
      "geometry": {
        "type": "point",
        "coordinates": [
          120.358568,
          22.672858
        ]
      },
      "properties": {
        "name": "仁慈公園",
        "name_eng": "Rencih Park"
      }
    },
    {
      "type": "feature",
      "geometry": {
        "type": "point",
        "coordinates": [
          120.357001,
          22.675799
        ]
      },
      "properties": {
        "name": "仁忠路口",
        "name_eng": "Renjhong Rd. Intersection"
      }
    },
    {
      "type": "feature",
      "geometry": {
        "type": "point",
        "coordinates": [
          120.354677,
          22.67964
        ]
      },
      "properties": {
        "name": "登發國小",
        "name_eng": "Dengfa Elementary School"
      }
    },
    {
      "type": "feature",
      "geometry": {
        "type": "point",
        "coordinates": [
          120.60495,
          22.87875
        ]
      },
      "properties": {
        "name": "新寮橋",
        "name_eng": "Sin Liao Bridge"
      }
    },
    {
      "type": "feature",
      "geometry": {
        "type": "point",
        "coordinates": [
          120.347587,
          22.67819
        ]
      },
      "properties": {
        "name": "慈惠堂",
        "name_eng": "Cihhuei Temple"
      }
    },
    {
      "type": "feature",
      "geometry": {
        "type": "point",
        "coordinates": [
          120.340368,
          22.676543
        ]
      },
      "properties": {
        "name": "八德路口(大灣)",
        "name_eng": "Bade Rd. Intersection(Da-Wan)"
      }
    },
    {
      "type": "feature",
      "geometry": {
        "type": "point",
        "coordinates": [
          120.347789,
          22.696229
        ]
      },
      "properties": {
        "name": "八卦寮",
        "name_eng": "Bagua Liao"
      }
    },
    {
      "type": "feature",
      "geometry": {
        "type": "point",
        "coordinates": [
          120.331433,
          22.672267
        ]
      },
      "properties": {
        "name": "後備指揮部",
        "name_eng": "Reserve Command of MND"
      }
    },
    {
      "type": "feature",
      "geometry": {
        "type": "point",
        "coordinates": [
          120.322393,
          22.672864
        ]
      },
      "properties": {
        "name": "鼎貴路口(獅湖國小)",
        "name_eng": "Dingguei Rd. Intersection (Shihhu Elementary School)"
      }
    },
    {
      "type": "feature",
      "geometry": {
        "type": "point",
        "coordinates": [
          120.323756,
          22.577058
        ]
      },
      "properties": {
        "name": "草衙",
        "name_eng": "Caoya"
      }
    },
    {
      "type": "feature",
      "geometry": {
        "type": "point",
        "coordinates": [
          120.321633,
          22.673429
        ]
      },
      "properties": {
        "name": "獅湖國小(鼎中路)",
        "name_eng": "Shihhu Elementary School (Dingjhong Rd.)"
      }
    },
    {
      "type": "feature",
      "geometry": {
        "type": "point",
        "coordinates": [
          120.318947,
          22.677623
        ]
      },
      "properties": {
        "name": "大中路口(民族一路)",
        "name_eng": "Dajhong Rd. Intersection (Minzu 1st Rd.)"
      }
    },
    {
      "type": "feature",
      "geometry": {
        "type": "point",
        "coordinates": [
          120.3182,
          22.67437
        ]
      },
      "properties": {
        "name": "菜公路口(民族一路)",
        "name_eng": "Caigong Rd. Intersection (Minzu 1st Rd.)"
      }
    },
    {
      "type": "feature",
      "geometry": {
        "type": "point",
        "coordinates": [
          120.317462,
          22.671155
        ]
      },
      "properties": {
        "name": "文藻外語大學(民族一路)",
        "name_eng": "Wenzao Ursuline University of Languages (Minzu 1st Rd.)"
      }
    },
    {
      "type": "feature",
      "geometry": {
        "type": "point",
        "coordinates": [
          120.316828,
          22.667715
        ]
      },
      "properties": {
        "name": "天祥路口(民族一路)",
        "name_eng": "Tiansiang Rd. Intersection (Minzu 1st Rd..)"
      }
    },
    {
      "type": "feature",
      "geometry": {
        "type": "point",
        "coordinates": [
          120.317087,
          22.608519
        ]
      },
      "properties": {
        "name": "聯勤大樓",
        "name_eng": "Liancin Building"
      }
    },
    {
      "type": "feature",
      "geometry": {
        "type": "point",
        "coordinates": [
          120.31451,
          22.66384
        ]
      },
      "properties": {
        "name": "京城世界",
        "name_eng": "Jingcheng World"
      }
    },
    {
      "type": "feature",
      "geometry": {
        "type": "point",
        "coordinates": [
          120.309151,
          22.664906
        ]
      },
      "properties": {
        "name": "自由二路口",
        "name_eng": "Zihyou 2nd Rd.Intersection"
      }
    },
    {
      "type": "feature",
      "geometry": {
        "type": "point",
        "coordinates": [
          120.322372,
          22.578542
        ]
      },
      "properties": {
        "name": "草衙市場",
        "name_eng": "Caoya Market"
      }
    },
    {
      "type": "feature",
      "geometry": {
        "type": "point",
        "coordinates": [
          120.307088,
          22.665492
        ]
      },
      "properties": {
        "name": "富國路口",
        "name_eng": "Fuguo Rd. Intersection"
      }
    },
    {
      "type": "feature",
      "geometry": {
        "type": "point",
        "coordinates": [
          120.304228,
          22.665839
        ]
      },
      "properties": {
        "name": "富民路口",
        "name_eng": "Fumin Rd. Intersection"
      }
    },
    {
      "type": "feature",
      "geometry": {
        "type": "point",
        "coordinates": [
          120.315178,
          22.609358
        ]
      },
      "properties": {
        "name": "沱江街口",
        "name_eng": "Tuojiang St. Intersection"
      }
    },
    {
      "type": "feature",
      "geometry": {
        "type": "point",
        "coordinates": [
          120.303207,
          22.668109
        ]
      },
      "properties": {
        "name": "漢神巨蛋",
        "name_eng": "Hanshen Arena"
      }
    },
    {
      "type": "feature",
      "geometry": {
        "type": "point",
        "coordinates": [
          120.31031,
          22.611416
        ]
      },
      "properties": {
        "name": "復興三路口",
        "name_eng": "Fusing 3rd Rd. Intersection"
      }
    },
    {
      "type": "feature",
      "geometry": {
        "type": "point",
        "coordinates": [
          120.28508,
          22.62643
        ]
      },
      "properties": {
        "name": "歷史博物館(大公路)",
        "name_eng": "Kaohsiung Museum of History (Dagong Rd.)"
      }
    },
    {
      "type": "feature",
      "geometry": {
        "type": "point",
        "coordinates": [
          120.305272,
          22.613671
        ]
      },
      "properties": {
        "name": "捷運三多商圈站(一心二路)",
        "name_eng": "MRT Sanduo Shopping District Station (Yisin 2nd Rd.)"
      }
    },
    {
      "type": "feature",
      "geometry": {
        "type": "point",
        "coordinates": [
          120.286984,
          22.621882
        ]
      },
      "properties": {
        "name": "大智路口(五福四路)",
        "name_eng": "Dajhih Rd. Intersection (Wufu 4th Rd.)"
      }
    },
    {
      "type": "feature",
      "geometry": {
        "type": "point",
        "coordinates": [
          120.28858,
          22.62106
        ]
      },
      "properties": {
        "name": "大成街口(輕軌真愛碼頭站)",
        "name_eng": "Dacheng St. Intersection (LRT Love Pier Station）"
      }
    },
    {
      "type": "feature",
      "geometry": {
        "type": "point",
        "coordinates": [
          120.29216,
          22.62063
        ]
      },
      "properties": {
        "name": "高雄女中(真愛碼頭)",
        "name_eng": "Kaohsiung Municipal Girls` Senior High School (Love Pier)"
      }
    },
    {
      "type": "feature",
      "geometry": {
        "type": "point",
        "coordinates": [
          120.322445,
          22.578575
        ]
      },
      "properties": {
        "name": "草衙市場",
        "name_eng": "Caoya Market"
      }
    },
    {
      "type": "feature",
      "geometry": {
        "type": "point",
        "coordinates": [
          120.29621,
          22.62153
        ]
      },
      "properties": {
        "name": "大立百貨",
        "name_eng": "Talee Department Store"
      }
    },
    {
      "type": "feature",
      "geometry": {
        "type": "point",
        "coordinates": [
          120.299587,
          22.612362
        ]
      },
      "properties": {
        "name": "八五大樓",
        "name_eng": "85 Sky Tower"
      }
    },
    {
      "type": "feature",
      "geometry": {
        "type": "point",
        "coordinates": [
          120.260176,
          22.828715
        ]
      },
      "properties": {
        "name": "高雄科學園區",
        "name_eng": "Kaohsiung Science Park"
      }
    },
    {
      "type": "feature",
      "geometry": {
        "type": "point",
        "coordinates": [
          120.297828,
          22.613875
        ]
      },
      "properties": {
        "name": "成功國小",
        "name_eng": "Chengkung Elementary School"
      }
    },
    {
      "type": "feature",
      "geometry": {
        "type": "point",
        "coordinates": [
          120.30785,
          22.625314
        ]
      },
      "properties": {
        "name": "高雄高商(五褔二路)",
        "name_eng": "Kaohsiung Vocational High School of Commerce (Wufu 2nd Rd.)"
      }
    },
    {
      "type": "feature",
      "geometry": {
        "type": "point",
        "coordinates": [
          120.309155,
          22.623083
        ]
      },
      "properties": {
        "name": "青年路口(復興二路)",
        "name_eng": "Cingnian Rd. Intersection (Fusing 2nd Rd.)"
      }
    },
    {
      "type": "feature",
      "geometry": {
        "type": "point",
        "coordinates": [
          120.29676,
          22.61696
        ]
      },
      "properties": {
        "name": "苓雅市場",
        "name_eng": "Lingya Market"
      }
    },
    {
      "type": "feature",
      "geometry": {
        "type": "point",
        "coordinates": [
          120.306365,
          22.637564
        ]
      },
      "properties": {
        "name": "建國忠孝路口",
        "name_eng": "Jianguo Jhongsiao Intersection"
      }
    },
    {
      "type": "feature",
      "geometry": {
        "type": "point",
        "coordinates": [
          120.30491,
          22.61758
        ]
      },
      "properties": {
        "name": "苓雅國中",
        "name_eng": "Lingya Junior High School"
      }
    },
    {
      "type": "feature",
      "geometry": {
        "type": "point",
        "coordinates": [
          120.293653,
          22.62041
        ]
      },
      "properties": {
        "name": "高雄女中(英雄路)",
        "name_eng": "Kaohsiung Municipal Girls Senior High School(Yingsiung Rd.)"
      }
    },
    {
      "type": "feature",
      "geometry": {
        "type": "point",
        "coordinates": [
          120.301295,
          22.622632
        ]
      },
      "properties": {
        "name": "新田路口(中山二路)",
        "name_eng": "Sintian Rd. Intersection (Jhongshan 2nd Rd.)"
      }
    },
    {
      "type": "feature",
      "geometry": {
        "type": "point",
        "coordinates": [
          120.293844,
          22.629194
        ]
      },
      "properties": {
        "name": "自強中正路口",
        "name_eng": "Zihciang Jhongjheng Rd. Intersection"
      }
    },
    {
      "type": "feature",
      "geometry": {
        "type": "point",
        "coordinates": [
          120.30357,
          22.65146
        ]
      },
      "properties": {
        "name": "同盟路口",
        "name_eng": "Tongmeng Rd. Intersection"
      }
    },
    {
      "type": "feature",
      "geometry": {
        "type": "point",
        "coordinates": [
          120.303465,
          22.654232
        ]
      },
      "properties": {
        "name": "龍德路口(博愛一路)",
        "name_eng": "Longde Rd. Intersection (Boai 1st Rd.)"
      }
    },
    {
      "type": "feature",
      "geometry": {
        "type": "point",
        "coordinates": [
          120.29302,
          22.631302
        ]
      },
      "properties": {
        "name": "七賢二路口(自強一路)",
        "name_eng": "Cisian 2nd Rd. Intersection (Zihciang 1st Rd.)"
      }
    },
    {
      "type": "feature",
      "geometry": {
        "type": "point",
        "coordinates": [
          120.298272,
          22.633978
        ]
      },
      "properties": {
        "name": "自立路口",
        "name_eng": "Zihli Rd. Intersection"
      }
    },
    {
      "type": "feature",
      "geometry": {
        "type": "point",
        "coordinates": [
          120.303254,
          22.660689
        ]
      },
      "properties": {
        "name": "明誠路口(博愛二路)",
        "name_eng": "Mingcheng Rd. Intersection (Boai 2nd Rd.)"
      }
    },
    {
      "type": "feature",
      "geometry": {
        "type": "point",
        "coordinates": [
          120.299545,
          22.612386
        ]
      },
      "properties": {
        "name": "八五大樓",
        "name_eng": "85 Sky Tower"
      }
    },
    {
      "type": "feature",
      "geometry": {
        "type": "point",
        "coordinates": [
          120.300634,
          22.634643
        ]
      },
      "properties": {
        "name": "七賢二路",
        "name_eng": "Cisian 2nd Rd."
      }
    },
    {
      "type": "feature",
      "geometry": {
        "type": "point",
        "coordinates": [
          120.302217,
          22.636991
        ]
      },
      "properties": {
        "name": "高雄車站(中山路)",
        "name_eng": "Kaohsiung Main Station(Jhongshan Rd.)"
      }
    },
    {
      "type": "feature",
      "geometry": {
        "type": "point",
        "coordinates": [
          120.308012,
          22.669086
        ]
      },
      "properties": {
        "name": "新莊國小",
        "name_eng": "Kaohsiung Municipal Sinjhuang Primary School"
      }
    },
    {
      "type": "feature",
      "geometry": {
        "type": "point",
        "coordinates": [
          120.31595,
          22.66848
        ]
      },
      "properties": {
        "name": "民族一路口",
        "name_eng": "Minzu 1st Rd. Intersection"
      }
    },
    {
      "type": "feature",
      "geometry": {
        "type": "point",
        "coordinates": [
          120.31761,
          22.67041
        ]
      },
      "properties": {
        "name": "文藻外語大學(民族一路)",
        "name_eng": "Wenzao Ursuline University of Languages (Minzu 1st Rd.)"
      }
    },
    {
      "type": "feature",
      "geometry": {
        "type": "point",
        "coordinates": [
          120.3215,
          22.67365
        ]
      },
      "properties": {
        "name": "獅湖國小(鼎中路)",
        "name_eng": "Shihhu Elementary School (Dingjhong Rd.)"
      }
    },
    {
      "type": "feature",
      "geometry": {
        "type": "point",
        "coordinates": [
          120.311094,
          22.622883
        ]
      },
      "properties": {
        "name": "民權路口(青年一路)",
        "name_eng": "Minciuan Rd. Intersection (Cingnian 1st Rd.)"
      }
    },
    {
      "type": "feature",
      "geometry": {
        "type": "point",
        "coordinates": [
          120.32292,
          22.580596
        ]
      },
      "properties": {
        "name": "北草衙",
        "name_eng": "North Caoya"
      }
    },
    {
      "type": "feature",
      "geometry": {
        "type": "point",
        "coordinates": [
          120.32303,
          22.67245
        ]
      },
      "properties": {
        "name": "鼎貴路口(獅湖國小)",
        "name_eng": "Dingguei Rd. Intersection (Shihhu Elementary School)"
      }
    },
    {
      "type": "feature",
      "geometry": {
        "type": "point",
        "coordinates": [
          120.302226,
          22.636326
        ]
      },
      "properties": {
        "name": "高雄車站(中山路)",
        "name_eng": "Kaohsiung Main Station(Jhongshan Rd.)"
      }
    },
    {
      "type": "feature",
      "geometry": {
        "type": "point",
        "coordinates": [
          120.349535,
          22.692725
        ]
      },
      "properties": {
        "name": "新庄(鳳仁路)",
        "name_eng": "Sinjhuang (Fongren Rd.)"
      }
    },
    {
      "type": "feature",
      "geometry": {
        "type": "point",
        "coordinates": [
          120.300733,
          22.634789
        ]
      },
      "properties": {
        "name": "七賢二路",
        "name_eng": "Cisian 2nd Rd."
      }
    },
    {
      "type": "feature",
      "geometry": {
        "type": "point",
        "coordinates": [
          120.355031,
          22.682282
        ]
      },
      "properties": {
        "name": "灣子內(仁武)",
        "name_eng": "Wanzihnei (Renwu)"
      }
    },
    {
      "type": "feature",
      "geometry": {
        "type": "point",
        "coordinates": [
          120.351748,
          22.688106
        ]
      },
      "properties": {
        "name": "名湖社區",
        "name_eng": "Minghu Community"
      }
    },
    {
      "type": "feature",
      "geometry": {
        "type": "point",
        "coordinates": [
          120.349721,
          22.692814
        ]
      },
      "properties": {
        "name": "新庄(鳳仁路)",
        "name_eng": "Sinjhuang (Fongren Rd.)"
      }
    },
    {
      "type": "feature",
      "geometry": {
        "type": "point",
        "coordinates": [
          120.34821,
          22.69601
        ]
      },
      "properties": {
        "name": "八卦寮",
        "name_eng": "Bagua Liao"
      }
    },
    {
      "type": "feature",
      "geometry": {
        "type": "point",
        "coordinates": [
          120.34681,
          22.69886
        ]
      },
      "properties": {
        "name": "通法寺",
        "name_eng": "Tongfa Temple"
      }
    },
    {
      "type": "feature",
      "geometry": {
        "type": "point",
        "coordinates": [
          120.322929,
          22.580586
        ]
      },
      "properties": {
        "name": "北草衙",
        "name_eng": "North Caoya"
      }
    },
    {
      "type": "feature",
      "geometry": {
        "type": "point",
        "coordinates": [
          120.298358,
          22.634175
        ]
      },
      "properties": {
        "name": "自立路口",
        "name_eng": "Zihli Rd. Intersection"
      }
    },
    {
      "type": "feature",
      "geometry": {
        "type": "point",
        "coordinates": [
          120.292767,
          22.631625
        ]
      },
      "properties": {
        "name": "七賢二路口(自強一路)",
        "name_eng": "Cisian 2nd Rd. Intersection (Zihciang 1st Rd.)"
      }
    },
    {
      "type": "feature",
      "geometry": {
        "type": "point",
        "coordinates": [
          120.35188,
          22.7022
        ]
      },
      "properties": {
        "name": "仁武里",
        "name_eng": "Renwu Village"
      }
    },
    {
      "type": "feature",
      "geometry": {
        "type": "point",
        "coordinates": [
          120.35382,
          22.70375
        ]
      },
      "properties": {
        "name": "文武里",
        "name_eng": "Wunwu Village"
      }
    },
    {
      "type": "feature",
      "geometry": {
        "type": "point",
        "coordinates": [
          120.35321,
          22.70925
        ]
      },
      "properties": {
        "name": "安樂一街口",
        "name_eng": "Anle 1st St. Intersection"
      }
    },
    {
      "type": "feature",
      "geometry": {
        "type": "point",
        "coordinates": [
          120.35208,
          22.71465
        ]
      },
      "properties": {
        "name": "後庄(中正路)",
        "name_eng": "Houjhuang (Jhongjheng Rd.)"
      }
    },
    {
      "type": "feature",
      "geometry": {
        "type": "point",
        "coordinates": [
          120.3514,
          22.71718
        ]
      },
      "properties": {
        "name": "中仁路口",
        "name_eng": "Jhongren Rd. Intersection"
      }
    },
    {
      "type": "feature",
      "geometry": {
        "type": "point",
        "coordinates": [
          120.35046,
          22.72238
        ]
      },
      "properties": {
        "name": "林子邊",
        "name_eng": "Linzihbian"
      }
    },
    {
      "type": "feature",
      "geometry": {
        "type": "point",
        "coordinates": [
          120.34683,
          22.72956
        ]
      },
      "properties": {
        "name": "大社農會",
        "name_eng": "Dashe Farmers` Association"
      }
    },
    {
      "type": "feature",
      "geometry": {
        "type": "point",
        "coordinates": [
          120.322271,
          22.58362
        ]
      },
      "properties": {
        "name": "前鎮國中",
        "name_eng": "Cianjhen Junior High School"
      }
    },
    {
      "type": "feature",
      "geometry": {
        "type": "point",
        "coordinates": [
          120.349191,
          22.72404
        ]
      },
      "properties": {
        "name": "三民路",
        "name_eng": "Sanmin Rd."
      }
    },
    {
      "type": "feature",
      "geometry": {
        "type": "point",
        "coordinates": [
          120.33715,
          22.73133
        ]
      },
      "properties": {
        "name": "外埔(楠梓)",
        "name_eng": "Waipu (Nanzih)"
      }
    },
    {
      "type": "feature",
      "geometry": {
        "type": "point",
        "coordinates": [
          120.3353,
          22.73098
        ]
      },
      "properties": {
        "name": "高雄少年法院",
        "name_eng": "Kaohsiung Juvenile Court"
      }
    },
    {
      "type": "feature",
      "geometry": {
        "type": "point",
        "coordinates": [
          120.3303,
          22.72835
        ]
      },
      "properties": {
        "name": "楠梓路口",
        "name_eng": "Nanzih Rd. Intersection"
      }
    },
    {
      "type": "feature",
      "geometry": {
        "type": "point",
        "coordinates": [
          120.32494,
          22.72661
        ]
      },
      "properties": {
        "name": "楠梓站",
        "name_eng": "Nanzih Station"
      }
    },
    {
      "type": "feature",
      "geometry": {
        "type": "point",
        "coordinates": [
          120.393908,
          22.605885
        ]
      },
      "properties": {
        "name": "進學路",
        "name_eng": "Jinsyue Rd."
      }
    },
    {
      "type": "feature",
      "geometry": {
        "type": "point",
        "coordinates": [
          120.32242,
          22.62764
        ]
      },
      "properties": {
        "name": "輕軌凱旋公園站(民生醫院)",
        "name_eng": "LRT Kaisyuan Park Station(Kaohsiung Municipal Minsheng Hospital)"
      }
    },
    {
      "type": "feature",
      "geometry": {
        "type": "point",
        "coordinates": [
          120.311472,
          22.619993
        ]
      },
      "properties": {
        "name": "市政大樓(四維三路)",
        "name_eng": "Kaohsiung City Hall (Sihwei 3rd Rd.)"
      }
    },
    {
      "type": "feature",
      "geometry": {
        "type": "point",
        "coordinates": [
          120.320638,
          22.584164
        ]
      },
      "properties": {
        "name": "康定路",
        "name_eng": "Kangding Rd."
      }
    },
    {
      "type": "feature",
      "geometry": {
        "type": "point",
        "coordinates": [
          120.3081,
          22.61851
        ]
      },
      "properties": {
        "name": "忠孝路口(四維三路)",
        "name_eng": "Jhongsiao Rd. Intersection (Sihwei 3rd Rd.)"
      }
    },
    {
      "type": "feature",
      "geometry": {
        "type": "point",
        "coordinates": [
          120.30378,
          22.61614
        ]
      },
      "properties": {
        "name": "興中二路口",
        "name_eng": "Singjhong 2nd Rd. Intersection"
      }
    },
    {
      "type": "feature",
      "geometry": {
        "type": "point",
        "coordinates": [
          120.293627,
          22.62943
        ]
      },
      "properties": {
        "name": "自強中正路口",
        "name_eng": "Zihciang Jhongjheng Rd. Intersection"
      }
    },
    {
      "type": "feature",
      "geometry": {
        "type": "point",
        "coordinates": [
          120.30501,
          22.61332
        ]
      },
      "properties": {
        "name": "捷運三多商圈站(中山二路)",
        "name_eng": "MRT Sanduo Shopping District Station (Jhongshan 2nd Rd.)"
      }
    },
    {
      "type": "feature",
      "geometry": {
        "type": "point",
        "coordinates": [
          120.311826,
          22.619498
        ]
      },
      "properties": {
        "name": "市政大樓(四維三路)",
        "name_eng": "Kaohsiung City Hall (Sihwei 3rd Rd.)"
      }
    },
    {
      "type": "feature",
      "geometry": {
        "type": "point",
        "coordinates": [
          120.3194,
          22.62256
        ]
      },
      "properties": {
        "name": "廣東一街口",
        "name_eng": "Guangdong 1st St. Intersection"
      }
    },
    {
      "type": "feature",
      "geometry": {
        "type": "point",
        "coordinates": [
          120.317131,
          22.632414
        ]
      },
      "properties": {
        "name": "和平一路",
        "name_eng": "Heping 1st Rd."
      }
    },
    {
      "type": "feature",
      "geometry": {
        "type": "point",
        "coordinates": [
          120.319083,
          22.633963
        ]
      },
      "properties": {
        "name": "凱旋路口",
        "name_eng": "Kaisyuan Rd. Intersection"
      }
    },
    {
      "type": "feature",
      "geometry": {
        "type": "point",
        "coordinates": [
          120.331881,
          22.631838
        ]
      },
      "properties": {
        "name": "輔仁路口(建國一路)",
        "name_eng": "Furen Rd. Intersection (Jianguo Rd.)"
      }
    },
    {
      "type": "feature",
      "geometry": {
        "type": "point",
        "coordinates": [
          120.334105,
          22.63128
        ]
      },
      "properties": {
        "name": "中正國小",
        "name_eng": "Jhongjheng Elementary School"
      }
    },
    {
      "type": "feature",
      "geometry": {
        "type": "point",
        "coordinates": [
          120.320695,
          22.584151
        ]
      },
      "properties": {
        "name": "康定路",
        "name_eng": "Kangding Rd."
      }
    },
    {
      "type": "feature",
      "geometry": {
        "type": "point",
        "coordinates": [
          120.33219,
          22.631832
        ]
      },
      "properties": {
        "name": "輔仁路口(建國一路)",
        "name_eng": "Furen Rd. Intersection (Jianguo Rd.)"
      }
    },
    {
      "type": "feature",
      "geometry": {
        "type": "point",
        "coordinates": [
          120.329149,
          22.632847
        ]
      },
      "properties": {
        "name": "大仁國中",
        "name_eng": "Taren Junior High School"
      }
    },
    {
      "type": "feature",
      "geometry": {
        "type": "point",
        "coordinates": [
          120.318761,
          22.634107
        ]
      },
      "properties": {
        "name": "凱旋路口",
        "name_eng": "Kaisyuan Rd. Intersection"
      }
    },
    {
      "type": "feature",
      "geometry": {
        "type": "point",
        "coordinates": [
          120.319792,
          22.585921
        ]
      },
      "properties": {
        "name": "鎮中路口",
        "name_eng": "Jhenjhong Rd. Intersection"
      }
    },
    {
      "type": "feature",
      "geometry": {
        "type": "point",
        "coordinates": [
          120.319779,
          22.585901
        ]
      },
      "properties": {
        "name": "鎮中路口",
        "name_eng": "Jhenjhong Rd. Intersection"
      }
    },
    {
      "type": "feature",
      "geometry": {
        "type": "point",
        "coordinates": [
          120.299438,
          22.792317
        ]
      },
      "properties": {
        "name": "岡山轉運站(岡山火車站)",
        "name_eng": "Gangshan Transfer Station (Gangshan Train Station)"
      }
    },
    {
      "type": "feature",
      "geometry": {
        "type": "point",
        "coordinates": [
          120.299162,
          22.791607
        ]
      },
      "properties": {
        "name": "岡山轉運站(岡山火車站)",
        "name_eng": "Gangshan Transfer Station (Gangshan Train Station)"
      }
    },
    {
      "type": "feature",
      "geometry": {
        "type": "point",
        "coordinates": [
          120.32016,
          22.58706
        ]
      },
      "properties": {
        "name": "前鎮高中",
        "name_eng": "Cianjhen Senior High School"
      }
    },
    {
      "type": "feature",
      "geometry": {
        "type": "point",
        "coordinates": [
          120.32429,
          22.58994
        ]
      },
      "properties": {
        "name": "福誠高中",
        "name_eng": "Fu Cheng Senior High School"
      }
    },
    {
      "type": "feature",
      "geometry": {
        "type": "point",
        "coordinates": [
          120.319775,
          22.585872
        ]
      },
      "properties": {
        "name": "鎮中路口",
        "name_eng": "Jhenjhong Rd. Intersection"
      }
    },
    {
      "type": "feature",
      "geometry": {
        "type": "point",
        "coordinates": [
          120.355589,
          22.633748
        ]
      },
      "properties": {
        "name": "大潤發",
        "name_eng": "RT-MART"
      }
    },
    {
      "type": "feature",
      "geometry": {
        "type": "point",
        "coordinates": [
          120.3593,
          22.6383
        ]
      },
      "properties": {
        "name": "八德路",
        "name_eng": "Bade Rd."
      }
    },
    {
      "type": "feature",
      "geometry": {
        "type": "point",
        "coordinates": [
          120.356195,
          22.63989
        ]
      },
      "properties": {
        "name": "文山里",
        "name_eng": "Wunshan Lane"
      }
    },
    {
      "type": "feature",
      "geometry": {
        "type": "point",
        "coordinates": [
          120.3805,
          22.65909
        ]
      },
      "properties": {
        "name": "松埔路口(圓照寺)",
        "name_eng": "Songbu Rd. Intersection (Yuanjhao Temple)"
      }
    },
    {
      "type": "feature",
      "geometry": {
        "type": "point",
        "coordinates": [
          120.405937,
          22.664981
        ]
      },
      "properties": {
        "name": "水寮中華路",
        "name_eng": "Shueiliao Jhonghua Rd."
      }
    },
    {
      "type": "feature",
      "geometry": {
        "type": "point",
        "coordinates": [
          120.426116,
          22.660401
        ]
      },
      "properties": {
        "name": "農友種苗",
        "name_eng": "Nongyou Jhongmiao"
      }
    },
    {
      "type": "feature",
      "geometry": {
        "type": "point",
        "coordinates": [
          120.426196,
          22.66964
        ]
      },
      "properties": {
        "name": "雄獅大地",
        "name_eng": "Syongshi Dadi"
      }
    },
    {
      "type": "feature",
      "geometry": {
        "type": "point",
        "coordinates": [
          120.320283,
          22.587032
        ]
      },
      "properties": {
        "name": "前鎮高中",
        "name_eng": "Cianjhen Senior High School"
      }
    },
    {
      "type": "feature",
      "geometry": {
        "type": "point",
        "coordinates": [
          120.42592,
          22.66839
        ]
      },
      "properties": {
        "name": "竹仔寮抽水站",
        "name_eng": "Zhu Liao Draw Water Station"
      }
    },
    {
      "type": "feature",
      "geometry": {
        "type": "point",
        "coordinates": [
          120.426142,
          22.671769
        ]
      },
      "properties": {
        "name": "竹寮",
        "name_eng": "Jhuliao"
      }
    },
    {
      "type": "feature",
      "geometry": {
        "type": "point",
        "coordinates": [
          120.426013,
          22.673847
        ]
      },
      "properties": {
        "name": "綠陽山莊",
        "name_eng": "Lyuyang Villa"
      }
    },
    {
      "type": "feature",
      "geometry": {
        "type": "point",
        "coordinates": [
          120.42538,
          22.676976
        ]
      },
      "properties": {
        "name": "公館(大樹)",
        "name_eng": "Gongguan (Dashu)"
      }
    },
    {
      "type": "feature",
      "geometry": {
        "type": "point",
        "coordinates": [
          120.425971,
          22.679609
        ]
      },
      "properties": {
        "name": "營房(大樹)",
        "name_eng": "Barracks (Dashu)"
      }
    },
    {
      "type": "feature",
      "geometry": {
        "type": "point",
        "coordinates": [
          120.430198,
          22.68637
        ]
      },
      "properties": {
        "name": "新吉庄",
        "name_eng": "Sinjijhuang"
      }
    },
    {
      "type": "feature",
      "geometry": {
        "type": "point",
        "coordinates": [
          120.431217,
          22.688963
        ]
      },
      "properties": {
        "name": "實踐街",
        "name_eng": "Shihjian St."
      }
    },
    {
      "type": "feature",
      "geometry": {
        "type": "point",
        "coordinates": [
          120.313578,
          22.623728
        ]
      },
      "properties": {
        "name": "四維國小(青年一路)",
        "name_eng": "Sih-Wei Primary School (Cingnian 1st Rd.)"
      }
    },
    {
      "type": "feature",
      "geometry": {
        "type": "point",
        "coordinates": [
          120.4346,
          22.6934
        ]
      },
      "properties": {
        "name": "中正一路",
        "name_eng": "Jhongjheng 1st. Rd."
      }
    },
    {
      "type": "feature",
      "geometry": {
        "type": "point",
        "coordinates": [
          120.4344,
          22.6914
        ]
      },
      "properties": {
        "name": "中興東路",
        "name_eng": "Jhongsing E. Rd."
      }
    },
    {
      "type": "feature",
      "geometry": {
        "type": "point",
        "coordinates": [
          120.432203,
          22.69091
        ]
      },
      "properties": {
        "name": "大樹農會",
        "name_eng": "Dashu Farmer`s Association"
      }
    },
    {
      "type": "feature",
      "geometry": {
        "type": "point",
        "coordinates": [
          120.430938,
          22.688775
        ]
      },
      "properties": {
        "name": "實踐街",
        "name_eng": "Shihjian St."
      }
    },
    {
      "type": "feature",
      "geometry": {
        "type": "point",
        "coordinates": [
          120.426207,
          22.669501
        ]
      },
      "properties": {
        "name": "雄獅大地",
        "name_eng": "Syongshi Dadi"
      }
    },
    {
      "type": "feature",
      "geometry": {
        "type": "point",
        "coordinates": [
          120.320188,
          22.586903
        ]
      },
      "properties": {
        "name": "前鎮高中",
        "name_eng": "Cianjhen Senior High School"
      }
    },
    {
      "type": "feature",
      "geometry": {
        "type": "point",
        "coordinates": [
          120.426207,
          22.660769
        ]
      },
      "properties": {
        "name": "農友種苗",
        "name_eng": "Nongyou Jhongmiao"
      }
    },
    {
      "type": "feature",
      "geometry": {
        "type": "point",
        "coordinates": [
          120.424017,
          22.654003
        ]
      },
      "properties": {
        "name": "九曲路口",
        "name_eng": "Jioucyu Rd. Intersection"
      }
    },
    {
      "type": "feature",
      "geometry": {
        "type": "point",
        "coordinates": [
          120.405738,
          22.664939
        ]
      },
      "properties": {
        "name": "水寮中華路",
        "name_eng": "Shueiliao Jhonghua Rd."
      }
    },
    {
      "type": "feature",
      "geometry": {
        "type": "point",
        "coordinates": [
          120.389313,
          22.658183
        ]
      },
      "properties": {
        "name": "高碼",
        "name_eng": "Gaoma"
      }
    },
    {
      "type": "feature",
      "geometry": {
        "type": "point",
        "coordinates": [
          120.3803,
          22.65938
        ]
      },
      "properties": {
        "name": "松埔路口(圓照寺)",
        "name_eng": "Songbu Rd. Intersection (Yuanjhao Temple)"
      }
    },
    {
      "type": "feature",
      "geometry": {
        "type": "point",
        "coordinates": [
          120.3565,
          22.6395
        ]
      },
      "properties": {
        "name": "文山里",
        "name_eng": "Wunshan Lane"
      }
    },
    {
      "type": "feature",
      "geometry": {
        "type": "point",
        "coordinates": [
          120.359323,
          22.638313
        ]
      },
      "properties": {
        "name": "八德路",
        "name_eng": "Bade Rd."
      }
    },
    {
      "type": "feature",
      "geometry": {
        "type": "point",
        "coordinates": [
          120.359087,
          22.636055
        ]
      },
      "properties": {
        "name": "建國新城(文衡路口)",
        "name_eng": "Jianguo Rd. New City (Wunheng Rd. Intersection)"
      }
    },
    {
      "type": "feature",
      "geometry": {
        "type": "point",
        "coordinates": [
          120.34345,
          22.56876
        ]
      },
      "properties": {
        "name": "高雄公園(捷運高雄國際機場站)",
        "name_eng": "Kaohsiung Park (MRT Kaohsiung International Airport Station)"
      }
    },
    {
      "type": "feature",
      "geometry": {
        "type": "point",
        "coordinates": [
          120.35567,
          22.633755
        ]
      },
      "properties": {
        "name": "大潤發",
        "name_eng": "RT-MART"
      }
    },
    {
      "type": "feature",
      "geometry": {
        "type": "point",
        "coordinates": [
          120.355761,
          22.63358
        ]
      },
      "properties": {
        "name": "大潤發",
        "name_eng": "RT-MART"
      }
    },
    {
      "type": "feature",
      "geometry": {
        "type": "point",
        "coordinates": [
          120.3805,
          22.65909
        ]
      },
      "properties": {
        "name": "松埔路口(圓照寺)",
        "name_eng": "Songbu Rd. Intersection (Yuanjhao Temple)"
      }
    },
    {
      "type": "feature",
      "geometry": {
        "type": "point",
        "coordinates": [
          120.389149,
          22.658146
        ]
      },
      "properties": {
        "name": "高碼",
        "name_eng": "Gaoma"
      }
    },
    {
      "type": "feature",
      "geometry": {
        "type": "point",
        "coordinates": [
          120.409407,
          22.668335
        ]
      },
      "properties": {
        "name": "井仔腳",
        "name_eng": "Jingzihjiao"
      }
    },
    {
      "type": "feature",
      "geometry": {
        "type": "point",
        "coordinates": [
          120.408538,
          22.67209
        ]
      },
      "properties": {
        "name": "井腳里",
        "name_eng": "Jingzih Village"
      }
    },
    {
      "type": "feature",
      "geometry": {
        "type": "point",
        "coordinates": [
          120.343465,
          22.568766
        ]
      },
      "properties": {
        "name": "高雄公園(捷運高雄國際機場站)",
        "name_eng": "Kaohsiung Park (MRT Kaohsiung International Airport Station)"
      }
    },
    {
      "type": "feature",
      "geometry": {
        "type": "point",
        "coordinates": [
          120.40781,
          22.674046
        ]
      },
      "properties": {
        "name": "崇聖殿",
        "name_eng": "Chongsheng Temple"
      }
    },
    {
      "type": "feature",
      "geometry": {
        "type": "point",
        "coordinates": [
          120.409,
          22.6807
        ]
      },
      "properties": {
        "name": "小坪頂",
        "name_eng": "Siaopingding"
      }
    },
    {
      "type": "feature",
      "geometry": {
        "type": "point",
        "coordinates": [
          120.411152,
          22.681815
        ]
      },
      "properties": {
        "name": "小坪國小",
        "name_eng": "Siao Ping Elementary School"
      }
    },
    {
      "type": "feature",
      "geometry": {
        "type": "point",
        "coordinates": [
          120.416508,
          22.685558
        ]
      },
      "properties": {
        "name": "龍目",
        "name_eng": "Longmu"
      }
    },
    {
      "type": "feature",
      "geometry": {
        "type": "point",
        "coordinates": [
          120.426749,
          22.686805
        ]
      },
      "properties": {
        "name": "大樹里",
        "name_eng": "Dashu Village"
      }
    },
    {
      "type": "feature",
      "geometry": {
        "type": "point",
        "coordinates": [
          120.429782,
          22.687095
        ]
      },
      "properties": {
        "name": "保安宮(大樹)",
        "name_eng": "Baoan Temple (Dashu)"
      }
    },
    {
      "type": "feature",
      "geometry": {
        "type": "point",
        "coordinates": [
          120.431048,
          22.688898
        ]
      },
      "properties": {
        "name": "實踐街",
        "name_eng": "Shihjian St."
      }
    },
    {
      "type": "feature",
      "geometry": {
        "type": "point",
        "coordinates": [
          120.432203,
          22.69091
        ]
      },
      "properties": {
        "name": "大樹農會",
        "name_eng": "Dashu Farmer`s Association"
      }
    },
    {
      "type": "feature",
      "geometry": {
        "type": "point",
        "coordinates": [
          120.432944,
          22.69317
        ]
      },
      "properties": {
        "name": "中興北路一",
        "name_eng": "Jhongsing N. Rd.1"
      }
    },
    {
      "type": "feature",
      "geometry": {
        "type": "point",
        "coordinates": [
          120.36001,
          22.6558
        ]
      },
      "properties": {
        "name": "澄清湖棒球場",
        "name_eng": "Chengcing Lake Baseball Field"
      }
    },
    {
      "type": "feature",
      "geometry": {
        "type": "point",
        "coordinates": [
          120.312,
          22.57171
        ]
      },
      "properties": {
        "name": "漁業署",
        "name_eng": "Fisheries Agency, Council of Agriculture"
      }
    },
    {
      "type": "feature",
      "geometry": {
        "type": "point",
        "coordinates": [
          120.434607,
          22.693447
        ]
      },
      "properties": {
        "name": "中正一路",
        "name_eng": "Jhongjheng 1st. Rd."
      }
    },
    {
      "type": "feature",
      "geometry": {
        "type": "point",
        "coordinates": [
          120.434371,
          22.691537
        ]
      },
      "properties": {
        "name": "中興東路",
        "name_eng": "Jhongsing E. Rd."
      }
    },
    {
      "type": "feature",
      "geometry": {
        "type": "point",
        "coordinates": [
          120.432238,
          22.690972
        ]
      },
      "properties": {
        "name": "大樹農會",
        "name_eng": "Dashu Farmer`s Association"
      }
    },
    {
      "type": "feature",
      "geometry": {
        "type": "point",
        "coordinates": [
          120.430013,
          22.687139
        ]
      },
      "properties": {
        "name": "保安宮(大樹)",
        "name_eng": "Baoan Temple (Dashu)"
      }
    },
    {
      "type": "feature",
      "geometry": {
        "type": "point",
        "coordinates": [
          120.426974,
          22.686883
        ]
      },
      "properties": {
        "name": "大樹里",
        "name_eng": "Dashu Village"
      }
    },
    {
      "type": "feature",
      "geometry": {
        "type": "point",
        "coordinates": [
          120.416079,
          22.685242
        ]
      },
      "properties": {
        "name": "龍目",
        "name_eng": "Longmu"
      }
    },
    {
      "type": "feature",
      "geometry": {
        "type": "point",
        "coordinates": [
          120.411391,
          22.682174
        ]
      },
      "properties": {
        "name": "小坪國小",
        "name_eng": "Siao Ping Elementary School"
      }
    },
    {
      "type": "feature",
      "geometry": {
        "type": "point",
        "coordinates": [
          120.409005,
          22.680842
        ]
      },
      "properties": {
        "name": "小坪頂",
        "name_eng": "Siaopingding"
      }
    },
    {
      "type": "feature",
      "geometry": {
        "type": "point",
        "coordinates": [
          120.407908,
          22.673538
        ]
      },
      "properties": {
        "name": "崇聖殿",
        "name_eng": "Chongsheng Temple"
      }
    },
    {
      "type": "feature",
      "geometry": {
        "type": "point",
        "coordinates": [
          120.312,
          22.57171
        ]
      },
      "properties": {
        "name": "漁業署",
        "name_eng": "Fisheries Agency, Council of Agriculture"
      }
    },
    {
      "type": "feature",
      "geometry": {
        "type": "point",
        "coordinates": [
          120.408438,
          22.672118
        ]
      },
      "properties": {
        "name": "井腳里",
        "name_eng": "Jingzih Village"
      }
    },
    {
      "type": "feature",
      "geometry": {
        "type": "point",
        "coordinates": [
          120.409385,
          22.668676
        ]
      },
      "properties": {
        "name": "井仔腳",
        "name_eng": "Jingzihjiao"
      }
    },
    {
      "type": "feature",
      "geometry": {
        "type": "point",
        "coordinates": [
          120.389313,
          22.658183
        ]
      },
      "properties": {
        "name": "高碼",
        "name_eng": "Gaoma"
      }
    },
    {
      "type": "feature",
      "geometry": {
        "type": "point",
        "coordinates": [
          120.3803,
          22.65938
        ]
      },
      "properties": {
        "name": "松埔路口(圓照寺)",
        "name_eng": "Songbu Rd. Intersection (Yuanjhao Temple)"
      }
    },
    {
      "type": "feature",
      "geometry": {
        "type": "point",
        "coordinates": [
          120.356405,
          22.63968
        ]
      },
      "properties": {
        "name": "文山里",
        "name_eng": "Wunshan Lane"
      }
    },
    {
      "type": "feature",
      "geometry": {
        "type": "point",
        "coordinates": [
          120.355614,
          22.633775
        ]
      },
      "properties": {
        "name": "大潤發",
        "name_eng": "RT-MART"
      }
    },
    {
      "type": "feature",
      "geometry": {
        "type": "point",
        "coordinates": [
          120.287673,
          22.696938
        ]
      },
      "properties": {
        "name": "海景街(合群社區)",
        "name_eng": "Haijing St. (Hecyun Community)"
      }
    },
    {
      "type": "feature",
      "geometry": {
        "type": "point",
        "coordinates": [
          120.3437,
          22.5688
        ]
      },
      "properties": {
        "name": "高雄公園(捷運高雄國際機場站)",
        "name_eng": "Kaohsiung Park (MRT Kaohsiung International Airport Station)"
      }
    },
    {
      "type": "feature",
      "geometry": {
        "type": "point",
        "coordinates": [
          120.28759,
          22.695279
        ]
      },
      "properties": {
        "name": "緯九路",
        "name_eng": "Weijiou Rd."
      }
    },
    {
      "type": "feature",
      "geometry": {
        "type": "point",
        "coordinates": [
          120.293459,
          22.693764
        ]
      },
      "properties": {
        "name": "左營禮拜堂(海功路)",
        "name_eng": "Zuoying Chapel (Haigong Rd.)"
      }
    },
    {
      "type": "feature",
      "geometry": {
        "type": "point",
        "coordinates": [
          120.294907,
          22.693744
        ]
      },
      "properties": {
        "name": "海功路(進學路口)",
        "name_eng": "Haigong Rd. (Jinsyue Rd. Intersection)"
      }
    },
    {
      "type": "feature",
      "geometry": {
        "type": "point",
        "coordinates": [
          120.287673,
          22.696938
        ]
      },
      "properties": {
        "name": "海景街(合群社區)",
        "name_eng": "Haijing St. (Hecyun Community)"
      }
    },
    {
      "type": "feature",
      "geometry": {
        "type": "point",
        "coordinates": [
          120.287611,
          22.695308
        ]
      },
      "properties": {
        "name": "緯九路",
        "name_eng": "Weijiou Rd."
      }
    },
    {
      "type": "feature",
      "geometry": {
        "type": "point",
        "coordinates": [
          120.293298,
          22.693744
        ]
      },
      "properties": {
        "name": "左營禮拜堂(海功路)",
        "name_eng": "Zuoying Chapel (Haigong Rd.)"
      }
    },
    {
      "type": "feature",
      "geometry": {
        "type": "point",
        "coordinates": [
          120.294886,
          22.693715
        ]
      },
      "properties": {
        "name": "海功路(進學路口)",
        "name_eng": "Haigong Rd. (Jinsyue Rd. Intersection)"
      }
    },
    {
      "type": "feature",
      "geometry": {
        "type": "point",
        "coordinates": [
          120.33524,
          22.5976
        ]
      },
      "properties": {
        "name": "五甲派出所",
        "name_eng": "Wujia Police Station"
      }
    },
    {
      "type": "feature",
      "geometry": {
        "type": "point",
        "coordinates": [
          120.34565,
          22.60604
        ]
      },
      "properties": {
        "name": "瑞隆東路口(南京路)",
        "name_eng": "Rueilong E. Rd. Intersection (Nanjing Rd.)"
      }
    },
    {
      "type": "feature",
      "geometry": {
        "type": "point",
        "coordinates": [
          120.3643,
          22.65969
        ]
      },
      "properties": {
        "name": "鳥松區公所(中正路)",
        "name_eng": "Niaosong District Office (Jhongjheng Rd.)"
      }
    },
    {
      "type": "feature",
      "geometry": {
        "type": "point",
        "coordinates": [
          120.34375,
          22.5688
        ]
      },
      "properties": {
        "name": "高雄公園(捷運高雄國際機場站)",
        "name_eng": "Kaohsiung Park (MRT Kaohsiung International Airport Station)"
      }
    },
    {
      "type": "feature",
      "geometry": {
        "type": "point",
        "coordinates": [
          120.29563,
          22.79533
        ]
      },
      "properties": {
        "name": "岡山農會",
        "name_eng": "Gangshan Farmers` Association"
      }
    },
    {
      "type": "feature",
      "geometry": {
        "type": "point",
        "coordinates": [
          120.35325,
          22.87621
        ]
      },
      "properties": {
        "name": "峰山里",
        "name_eng": "Fongshan Village"
      }
    },
    {
      "type": "feature",
      "geometry": {
        "type": "point",
        "coordinates": [
          120.357593,
          22.631513
        ]
      },
      "properties": {
        "name": "臺鐵鳳山站",
        "name_eng": "TRA Fengshan Station"
      }
    },
    {
      "type": "feature",
      "geometry": {
        "type": "point",
        "coordinates": [
          120.29558,
          22.79561
        ]
      },
      "properties": {
        "name": "岡山農會",
        "name_eng": "Gangshan Farmers` Association"
      }
    },
    {
      "type": "feature",
      "geometry": {
        "type": "point",
        "coordinates": [
          120.339933,
          22.631641
        ]
      },
      "properties": {
        "name": "正義路",
        "name_eng": "Jhengyi Rd."
      }
    },
    {
      "type": "feature",
      "geometry": {
        "type": "point",
        "coordinates": [
          120.295126,
          22.798609
        ]
      },
      "properties": {
        "name": "岡山區公所",
        "name_eng": "Gangshan District Office"
      }
    },
    {
      "type": "feature",
      "geometry": {
        "type": "point",
        "coordinates": [
          120.29563,
          22.79533
        ]
      },
      "properties": {
        "name": "岡山農會",
        "name_eng": "Gangshan Farmers` Association"
      }
    },
    {
      "type": "feature",
      "geometry": {
        "type": "point",
        "coordinates": [
          120.296703,
          22.79199
        ]
      },
      "properties": {
        "name": "岡山郵局(民有路)",
        "name_eng": "Gangshan Post Office (Minyou Rd.)"
      }
    },
    {
      "type": "feature",
      "geometry": {
        "type": "point",
        "coordinates": [
          120.29661,
          22.78768
        ]
      },
      "properties": {
        "name": "文化街口",
        "name_eng": "Wunhua St. Intersection"
      }
    },
    {
      "type": "feature",
      "geometry": {
        "type": "point",
        "coordinates": [
          120.2971,
          22.78411
        ]
      },
      "properties": {
        "name": "岡山文化中心",
        "name_eng": "Gangshan Cultural Center"
      }
    },
    {
      "type": "feature",
      "geometry": {
        "type": "point",
        "coordinates": [
          120.339797,
          22.631653
        ]
      },
      "properties": {
        "name": "正義路",
        "name_eng": "Jhengyi Rd."
      }
    },
    {
      "type": "feature",
      "geometry": {
        "type": "point",
        "coordinates": [
          120.29558,
          22.79561
        ]
      },
      "properties": {
        "name": "岡山農會",
        "name_eng": "Gangshan Farmers` Association"
      }
    },
    {
      "type": "feature",
      "geometry": {
        "type": "point",
        "coordinates": [
          120.291519,
          22.802412
        ]
      },
      "properties": {
        "name": "岡山農工",
        "name_eng": "Gangshan Agricultural & Industrial Vocational Senior High School"
      }
    },
    {
      "type": "feature",
      "geometry": {
        "type": "point",
        "coordinates": [
          120.28523,
          22.80751
        ]
      },
      "properties": {
        "name": "慈濟大學推廣中心",
        "name_eng": "Tzu Chi University Continuing Education Center"
      }
    },
    {
      "type": "feature",
      "geometry": {
        "type": "point",
        "coordinates": [
          120.282778,
          22.809529
        ]
      },
      "properties": {
        "name": "灣子內(岡山)",
        "name_eng": "Wanzihnei (Gangshan)"
      }
    },
    {
      "type": "feature",
      "geometry": {
        "type": "point",
        "coordinates": [
          120.28005,
          22.81185
        ]
      },
      "properties": {
        "name": "育德街口",
        "name_eng": "Yude St. Intersection"
      }
    },
    {
      "type": "feature",
      "geometry": {
        "type": "point",
        "coordinates": [
          120.324214,
          22.738219
        ]
      },
      "properties": {
        "name": "清豐路口(楠梓路)",
        "name_eng": "Cingfong Rd. Intersection (Nanzih Rd.)"
      }
    },
    {
      "type": "feature",
      "geometry": {
        "type": "point",
        "coordinates": [
          120.308409,
          22.683738
        ]
      },
      "properties": {
        "name": "大中路口一(華夏路)",
        "name_eng": "Dajhong Rd. Intersection I (Huasia Rd.)"
      }
    },
    {
      "type": "feature",
      "geometry": {
        "type": "point",
        "coordinates": [
          120.2737,
          22.81696
        ]
      },
      "properties": {
        "name": "台泥公司",
        "name_eng": "Taiwan Cement Corporation"
      }
    },
    {
      "type": "feature",
      "geometry": {
        "type": "point",
        "coordinates": [
          120.26946,
          22.8212
        ]
      },
      "properties": {
        "name": "北嶺墘",
        "name_eng": "Beilingcian"
      }
    },
    {
      "type": "feature",
      "geometry": {
        "type": "point",
        "coordinates": [
          120.2666,
          22.82731
        ]
      },
      "properties": {
        "name": "味全公司",
        "name_eng": "Wei Chuan Foods Corp."
      }
    },
    {
      "type": "feature",
      "geometry": {
        "type": "point",
        "coordinates": [
          120.26383,
          22.84142
        ]
      },
      "properties": {
        "name": "高苑科大",
        "name_eng": "Kao Yuan University"
      }
    },
    {
      "type": "feature",
      "geometry": {
        "type": "point",
        "coordinates": [
          120.26246,
          22.84871
        ]
      },
      "properties": {
        "name": "東盟公司",
        "name_eng": "East Alliance Enterprise Corporation"
      }
    },
    {
      "type": "feature",
      "geometry": {
        "type": "point",
        "coordinates": [
          120.261531,
          22.853225
        ]
      },
      "properties": {
        "name": "國昌路口(中山路)",
        "name_eng": "Guochang Rd. Intersection (Jhongshan Rd.)"
      }
    },
    {
      "type": "feature",
      "geometry": {
        "type": "point",
        "coordinates": [
          120.26016,
          22.85905
        ]
      },
      "properties": {
        "name": "路竹",
        "name_eng": "Lujhu"
      }
    },
    {
      "type": "feature",
      "geometry": {
        "type": "point",
        "coordinates": [
          120.25796,
          22.86308
        ]
      },
      "properties": {
        "name": "北路竹",
        "name_eng": "Beilujhu"
      }
    },
    {
      "type": "feature",
      "geometry": {
        "type": "point",
        "coordinates": [
          120.25676,
          22.86563
        ]
      },
      "properties": {
        "name": "高新醫院",
        "name_eng": "Gaosin Hospital"
      }
    },
    {
      "type": "feature",
      "geometry": {
        "type": "point",
        "coordinates": [
          120.340578,
          22.565398
        ]
      },
      "properties": {
        "name": "小港站",
        "name_eng": "Siaogang Station"
      }
    },
    {
      "type": "feature",
      "geometry": {
        "type": "point",
        "coordinates": [
          120.25421,
          22.8735
        ]
      },
      "properties": {
        "name": "中山大仁路口",
        "name_eng": "Jhongshan Daren Rd. Intersection"
      }
    },
    {
      "type": "feature",
      "geometry": {
        "type": "point",
        "coordinates": [
          120.25243,
          22.87773
        ]
      },
      "properties": {
        "name": "大湖火車站",
        "name_eng": "Dahu Train Station"
      }
    },
    {
      "type": "feature",
      "geometry": {
        "type": "point",
        "coordinates": [
          120.24734,
          22.87963
        ]
      },
      "properties": {
        "name": "東方設計學院",
        "name_eng": "Tungfang Design Institute"
      }
    },
    {
      "type": "feature",
      "geometry": {
        "type": "point",
        "coordinates": [
          120.23954,
          22.87883
        ]
      },
      "properties": {
        "name": "明寧靖王公園",
        "name_eng": "Ningjing (Prince of the Ming Dynasty) Park"
      }
    },
    {
      "type": "feature",
      "geometry": {
        "type": "point",
        "coordinates": [
          120.23183,
          22.87835
        ]
      },
      "properties": {
        "name": "民族街口",
        "name_eng": "Minzu St. Intersection"
      }
    },
    {
      "type": "feature",
      "geometry": {
        "type": "point",
        "coordinates": [
          120.2143,
          22.87687
        ]
      },
      "properties": {
        "name": "興達遠洋漁港",
        "name_eng": "Singda Deep Sea Fishing Port"
      }
    },
    {
      "type": "feature",
      "geometry": {
        "type": "point",
        "coordinates": [
          120.21421,
          22.87926
        ]
      },
      "properties": {
        "name": "假日市集",
        "name_eng": "Holiday Market"
      }
    },
    {
      "type": "feature",
      "geometry": {
        "type": "point",
        "coordinates": [
          120.21144,
          22.88087
        ]
      },
      "properties": {
        "name": "情人碼頭",
        "name_eng": "Lovers Wharf"
      }
    },
    {
      "type": "feature",
      "geometry": {
        "type": "point",
        "coordinates": [
          120.20391,
          22.87882
        ]
      },
      "properties": {
        "name": "興達港(正大路)",
        "name_eng": "Singda Fishing Port (Jhengda Rd.)"
      }
    },
    {
      "type": "feature",
      "geometry": {
        "type": "point",
        "coordinates": [
          120.340578,
          22.565398
        ]
      },
      "properties": {
        "name": "小港站",
        "name_eng": "Siaogang Station"
      }
    },
    {
      "type": "feature",
      "geometry": {
        "type": "point",
        "coordinates": [
          120.201,
          22.87642
        ]
      },
      "properties": {
        "name": "興達港海巡署基地",
        "name_eng": "Coast Guard Base of Singda Harbor"
      }
    },
    {
      "type": "feature",
      "geometry": {
        "type": "point",
        "coordinates": [
          120.1966,
          22.8756
        ]
      },
      "properties": {
        "name": "興達國小",
        "name_eng": "Hsing-Da Elementary School"
      }
    },
    {
      "type": "feature",
      "geometry": {
        "type": "point",
        "coordinates": [
          120.1943,
          22.87485
        ]
      },
      "properties": {
        "name": "崎漏電信局",
        "name_eng": "Cilou Telecom Office"
      }
    },
    {
      "type": "feature",
      "geometry": {
        "type": "point",
        "coordinates": [
          120.19211,
          22.87096
        ]
      },
      "properties": {
        "name": "興達港觀光魚市",
        "name_eng": "Singda Harbor Tourism Fish Market"
      }
    },
    {
      "type": "feature",
      "geometry": {
        "type": "point",
        "coordinates": [
          120.19086,
          22.87304
        ]
      },
      "properties": {
        "name": "崎漏農會活動中心",
        "name_eng": "Community Center of Cilou Farmers` Association"
      }
    },
    {
      "type": "feature",
      "geometry": {
        "type": "point",
        "coordinates": [
          120.189104,
          22.877607
        ]
      },
      "properties": {
        "name": "崎漏",
        "name_eng": "Cilou"
      }
    },
    {
      "type": "feature",
      "geometry": {
        "type": "point",
        "coordinates": [
          120.18689,
          22.8844
        ]
      },
      "properties": {
        "name": "濱海路一段",
        "name_eng": "Binhai Rd. Sec. 1"
      }
    },
    {
      "type": "feature",
      "geometry": {
        "type": "point",
        "coordinates": [
          120.18713,
          22.8898
        ]
      },
      "properties": {
        "name": "成功橋",
        "name_eng": "Cheng Gong Bridge"
      }
    },
    {
      "type": "feature",
      "geometry": {
        "type": "point",
        "coordinates": [
          120.18614,
          22.89346
        ]
      },
      "properties": {
        "name": "光萣",
        "name_eng": "Guang Ding"
      }
    },
    {
      "type": "feature",
      "geometry": {
        "type": "point",
        "coordinates": [
          120.340578,
          22.565398
        ]
      },
      "properties": {
        "name": "小港站",
        "name_eng": "Siaogang Station"
      }
    },
    {
      "type": "feature",
      "geometry": {
        "type": "point",
        "coordinates": [
          120.185022,
          22.895687
        ]
      },
      "properties": {
        "name": "茄萣農會(下茄萣)",
        "name_eng": "Cieding Farmers` Association (Siacieding)"
      }
    },
    {
      "type": "feature",
      "geometry": {
        "type": "point",
        "coordinates": [
          120.18473,
          22.89831
        ]
      },
      "properties": {
        "name": "頂茄萣",
        "name_eng": "Dingcieding"
      }
    },
    {
      "type": "feature",
      "geometry": {
        "type": "point",
        "coordinates": [
          120.18407,
          22.90146
        ]
      },
      "properties": {
        "name": "曾厝",
        "name_eng": "Zeng Cuo"
      }
    },
    {
      "type": "feature",
      "geometry": {
        "type": "point",
        "coordinates": [
          120.18376,
          22.90369
        ]
      },
      "properties": {
        "name": "茄萣國小",
        "name_eng": "Kaohsiung Municipal Cieding Primary School"
      }
    },
    {
      "type": "feature",
      "geometry": {
        "type": "point",
        "coordinates": [
          120.18378,
          22.90637
        ]
      },
      "properties": {
        "name": "茄萣區公所(茄萣國中)",
        "name_eng": "Cieding District Office (Jiading Junior High School)"
      }
    },
    {
      "type": "feature",
      "geometry": {
        "type": "point",
        "coordinates": [
          120.184459,
          22.909391
        ]
      },
      "properties": {
        "name": "白雲寺",
        "name_eng": "Baiyun Temple"
      }
    },
    {
      "type": "feature",
      "geometry": {
        "type": "point",
        "coordinates": [
          120.293551,
          22.620435
        ]
      },
      "properties": {
        "name": "高雄女中(英雄路)",
        "name_eng": "Kaohsiung Municipal Girls Senior High School(Yingsiung Rd.)"
      }
    },
    {
      "type": "feature",
      "geometry": {
        "type": "point",
        "coordinates": [
          120.347151,
          22.620032
        ]
      },
      "properties": {
        "name": "高雄市議會(忠孝國中)",
        "name_eng": "Kaohsiung City Council (Jhongsiao Junior High School)"
      }
    },
    {
      "type": "feature",
      "geometry": {
        "type": "point",
        "coordinates": [
          120.340687,
          22.565347
        ]
      },
      "properties": {
        "name": "小港站",
        "name_eng": "Siaogang Station"
      }
    },
    {
      "type": "feature",
      "geometry": {
        "type": "point",
        "coordinates": [
          120.35726,
          22.62843
        ]
      },
      "properties": {
        "name": "曹公路",
        "name_eng": "Caogong Rd."
      }
    },
    {
      "type": "feature",
      "geometry": {
        "type": "point",
        "coordinates": [
          120.296654,
          22.616798
        ]
      },
      "properties": {
        "name": "苓雅市場",
        "name_eng": "Lingya Market"
      }
    },
    {
      "type": "feature",
      "geometry": {
        "type": "point",
        "coordinates": [
          120.297617,
          22.613894
        ]
      },
      "properties": {
        "name": "成功國小",
        "name_eng": "Chengkung Elementary School"
      }
    },
    {
      "type": "feature",
      "geometry": {
        "type": "point",
        "coordinates": [
          120.3,
          22.61242
        ]
      },
      "properties": {
        "name": "八五大樓",
        "name_eng": "85 Sky Tower"
      }
    },
    {
      "type": "feature",
      "geometry": {
        "type": "point",
        "coordinates": [
          120.305238,
          22.613564
        ]
      },
      "properties": {
        "name": "捷運三多商圈站(一心二路)",
        "name_eng": "MRT Sanduo Shopping District Station (Yisin 2nd Rd.)"
      }
    },
    {
      "type": "feature",
      "geometry": {
        "type": "point",
        "coordinates": [
          120.349967,
          22.629155
        ]
      },
      "properties": {
        "name": "中山國小(光復路)",
        "name_eng": "Chungshan Elementary School (Guangfu Rd.)"
      }
    },
    {
      "type": "feature",
      "geometry": {
        "type": "point",
        "coordinates": [
          120.31031,
          22.611416
        ]
      },
      "properties": {
        "name": "復興三路口",
        "name_eng": "Fusing 3rd Rd. Intersection"
      }
    },
    {
      "type": "feature",
      "geometry": {
        "type": "point",
        "coordinates": [
          120.340687,
          22.565347
        ]
      },
      "properties": {
        "name": "小港站",
        "name_eng": "Siaogang Station"
      }
    },
    {
      "type": "feature",
      "geometry": {
        "type": "point",
        "coordinates": [
          120.349515,
          22.629189
        ]
      },
      "properties": {
        "name": "中山國小(光復路)",
        "name_eng": "Chungshan Elementary School (Guangfu Rd.)"
      }
    },
    {
      "type": "feature",
      "geometry": {
        "type": "point",
        "coordinates": [
          120.29558,
          22.79561
        ]
      },
      "properties": {
        "name": "岡山農會",
        "name_eng": "Gangshan Farmers` Association"
      }
    },
    {
      "type": "feature",
      "geometry": {
        "type": "point",
        "coordinates": [
          120.295135,
          22.798598
        ]
      },
      "properties": {
        "name": "岡山區公所",
        "name_eng": "Gangshan District Office"
      }
    },
    {
      "type": "feature",
      "geometry": {
        "type": "point",
        "coordinates": [
          120.291519,
          22.802412
        ]
      },
      "properties": {
        "name": "岡山農工",
        "name_eng": "Gangshan Agricultural & Industrial Vocational Senior High School"
      }
    },
    {
      "type": "feature",
      "geometry": {
        "type": "point",
        "coordinates": [
          120.28523,
          22.80751
        ]
      },
      "properties": {
        "name": "慈濟大學推廣中心",
        "name_eng": "Tzu Chi University Continuing Education Center"
      }
    },
    {
      "type": "feature",
      "geometry": {
        "type": "point",
        "coordinates": [
          120.282778,
          22.809529
        ]
      },
      "properties": {
        "name": "灣子內(岡山)",
        "name_eng": "Wanzihnei (Gangshan)"
      }
    },
    {
      "type": "feature",
      "geometry": {
        "type": "point",
        "coordinates": [
          120.28005,
          22.81185
        ]
      },
      "properties": {
        "name": "育德街口",
        "name_eng": "Yude St. Intersection"
      }
    },
    {
      "type": "feature",
      "geometry": {
        "type": "point",
        "coordinates": [
          120.2737,
          22.81696
        ]
      },
      "properties": {
        "name": "台泥公司",
        "name_eng": "Taiwan Cement Corporation"
      }
    },
    {
      "type": "feature",
      "geometry": {
        "type": "point",
        "coordinates": [
          120.343961,
          22.565553
        ]
      },
      "properties": {
        "name": "小港分局",
        "name_eng": "Siaogang Precinct"
      }
    },
    {
      "type": "feature",
      "geometry": {
        "type": "point",
        "coordinates": [
          120.26946,
          22.8212
        ]
      },
      "properties": {
        "name": "北嶺墘",
        "name_eng": "Beilingcian"
      }
    },
    {
      "type": "feature",
      "geometry": {
        "type": "point",
        "coordinates": [
          120.2666,
          22.82731
        ]
      },
      "properties": {
        "name": "味全公司",
        "name_eng": "Wei Chuan Foods Corp."
      }
    },
    {
      "type": "feature",
      "geometry": {
        "type": "point",
        "coordinates": [
          120.26383,
          22.8415
        ]
      },
      "properties": {
        "name": "高苑科大",
        "name_eng": "Kao Yuan University"
      }
    },
    {
      "type": "feature",
      "geometry": {
        "type": "point",
        "coordinates": [
          120.26246,
          22.84871
        ]
      },
      "properties": {
        "name": "東盟公司",
        "name_eng": "East Alliance Enterprise Corporation"
      }
    },
    {
      "type": "feature",
      "geometry": {
        "type": "point",
        "coordinates": [
          120.261531,
          22.853225
        ]
      },
      "properties": {
        "name": "國昌路口(中山路)",
        "name_eng": "Guochang Rd. Intersection (Jhongshan Rd.)"
      }
    },
    {
      "type": "feature",
      "geometry": {
        "type": "point",
        "coordinates": [
          120.26016,
          22.85905
        ]
      },
      "properties": {
        "name": "路竹",
        "name_eng": "Lujhu"
      }
    },
    {
      "type": "feature",
      "geometry": {
        "type": "point",
        "coordinates": [
          120.25796,
          22.86308
        ]
      },
      "properties": {
        "name": "北路竹",
        "name_eng": "Beilujhu"
      }
    },
    {
      "type": "feature",
      "geometry": {
        "type": "point",
        "coordinates": [
          120.25676,
          22.86563
        ]
      },
      "properties": {
        "name": "高新醫院",
        "name_eng": "Gaosin Hospital"
      }
    },
    {
      "type": "feature",
      "geometry": {
        "type": "point",
        "coordinates": [
          120.344228,
          22.565731
        ]
      },
      "properties": {
        "name": "小港分局",
        "name_eng": "Siaogang Precinct"
      }
    },
    {
      "type": "feature",
      "geometry": {
        "type": "point",
        "coordinates": [
          120.25243,
          22.87773
        ]
      },
      "properties": {
        "name": "大湖火車站",
        "name_eng": "Dahu Train Station"
      }
    },
    {
      "type": "feature",
      "geometry": {
        "type": "point",
        "coordinates": [
          120.24926,
          22.88168
        ]
      },
      "properties": {
        "name": "東方路口(東方技術學院)",
        "name_eng": "Dongfang Rd. Intersection (Tungfang Institute of Technology)"
      }
    },
    {
      "type": "feature",
      "geometry": {
        "type": "point",
        "coordinates": [
          120.2428,
          22.88855
        ]
      },
      "properties": {
        "name": "大湖",
        "name_eng": "Dahu"
      }
    },
    {
      "type": "feature",
      "geometry": {
        "type": "point",
        "coordinates": [
          120.24063,
          22.89463
        ]
      },
      "properties": {
        "name": "田尾里",
        "name_eng": "Tianwei Village"
      }
    },
    {
      "type": "feature",
      "geometry": {
        "type": "point",
        "coordinates": [
          120.23615,
          22.89821
        ]
      },
      "properties": {
        "name": "台農飼料廠",
        "name_eng": "Taiwan Farmers Feed Mill"
      }
    },
    {
      "type": "feature",
      "geometry": {
        "type": "point",
        "coordinates": [
          120.23175,
          22.90248
        ]
      },
      "properties": {
        "name": "牛蹄寮(富樂夢觀光工廠)",
        "name_eng": "Nioutiliao(FLOMO Ftationery Museum)"
      }
    },
    {
      "type": "feature",
      "geometry": {
        "type": "point",
        "coordinates": [
          120.227938,
          22.908153
        ]
      },
      "properties": {
        "name": "太爺(湖內國中)",
        "name_eng": "Taiye (Hunei Junior High School)"
      }
    },
    {
      "type": "feature",
      "geometry": {
        "type": "point",
        "coordinates": [
          120.226251,
          22.909491
        ]
      },
      "properties": {
        "name": "太爺(中正路一段)",
        "name_eng": "Taiye (Jhongjheng Rd. Section 1)"
      }
    },
    {
      "type": "feature",
      "geometry": {
        "type": "point",
        "coordinates": [
          120.22425,
          22.91
        ]
      },
      "properties": {
        "name": "仁佑診所",
        "name_eng": "Renyou Clinic"
      }
    },
    {
      "type": "feature",
      "geometry": {
        "type": "point",
        "coordinates": [
          120.344464,
          22.565721
        ]
      },
      "properties": {
        "name": "小港分局",
        "name_eng": "Siaogang Precinct"
      }
    },
    {
      "type": "feature",
      "geometry": {
        "type": "point",
        "coordinates": [
          120.22083,
          22.90915
        ]
      },
      "properties": {
        "name": "圍內",
        "name_eng": "Weinei"
      }
    },
    {
      "type": "feature",
      "geometry": {
        "type": "point",
        "coordinates": [
          120.2172,
          22.90881
        ]
      },
      "properties": {
        "name": "葉厝甲",
        "name_eng": "Yecuojia"
      }
    },
    {
      "type": "feature",
      "geometry": {
        "type": "point",
        "coordinates": [
          120.21475,
          22.90858
        ]
      },
      "properties": {
        "name": "湖內農會",
        "name_eng": "Hunei Farmers` Association"
      }
    },
    {
      "type": "feature",
      "geometry": {
        "type": "point",
        "coordinates": [
          120.211216,
          22.908438
        ]
      },
      "properties": {
        "name": "湖內區公所(圍子內)",
        "name_eng": "Hunei District Office (Weizihnei)"
      }
    },
    {
      "type": "feature",
      "geometry": {
        "type": "point",
        "coordinates": [
          120.2086,
          22.90798
        ]
      },
      "properties": {
        "name": "文賢里",
        "name_eng": "Wunsian Village"
      }
    },
    {
      "type": "feature",
      "geometry": {
        "type": "point",
        "coordinates": [
          120.2007,
          22.9097
        ]
      },
      "properties": {
        "name": "新庄路口(中正路二段)",
        "name_eng": "Sinjhuang Rd. Intersection (Jhongjheng Rd. Sec. 2)"
      }
    },
    {
      "type": "feature",
      "geometry": {
        "type": "point",
        "coordinates": [
          120.19561,
          22.91198
        ]
      },
      "properties": {
        "name": "草仔寮-湖內",
        "name_eng": "Cao Zih Liao-Hu Nei"
      }
    },
    {
      "type": "feature",
      "geometry": {
        "type": "point",
        "coordinates": [
          120.18513,
          22.91285
        ]
      },
      "properties": {
        "name": "白砂崙",
        "name_eng": "Baishalun"
      }
    },
    {
      "type": "feature",
      "geometry": {
        "type": "point",
        "coordinates": [
          120.18473,
          22.9109
        ]
      },
      "properties": {
        "name": "南白砂崙",
        "name_eng": "S. Baishalun"
      }
    },
    {
      "type": "feature",
      "geometry": {
        "type": "point",
        "coordinates": [
          120.344228,
          22.565731
        ]
      },
      "properties": {
        "name": "小港分局",
        "name_eng": "Siaogang Precinct"
      }
    },
    {
      "type": "feature",
      "geometry": {
        "type": "point",
        "coordinates": [
          120.184288,
          22.909367
        ]
      },
      "properties": {
        "name": "白雲寺",
        "name_eng": "Baiyun Temple"
      }
    },
    {
      "type": "feature",
      "geometry": {
        "type": "point",
        "coordinates": [
          120.18366,
          22.90635
        ]
      },
      "properties": {
        "name": "茄萣區公所(茄萣國中)",
        "name_eng": "Cieding District Office (Jiading Junior High School)"
      }
    },
    {
      "type": "feature",
      "geometry": {
        "type": "point",
        "coordinates": [
          120.18369,
          22.90363
        ]
      },
      "properties": {
        "name": "茄萣國小",
        "name_eng": "Kaohsiung Municipal Cieding Primary School"
      }
    },
    {
      "type": "feature",
      "geometry": {
        "type": "point",
        "coordinates": [
          120.18405,
          22.9012
        ]
      },
      "properties": {
        "name": "曾厝",
        "name_eng": "Zeng Cuo"
      }
    },
    {
      "type": "feature",
      "geometry": {
        "type": "point",
        "coordinates": [
          120.36102,
          22.621941
        ]
      },
      "properties": {
        "name": "大東路(鳳山龍山寺)",
        "name_eng": "Dadong Rd.(Fongshan Longshan Temple)"
      }
    },
    {
      "type": "feature",
      "geometry": {
        "type": "point",
        "coordinates": [
          120.359023,
          22.619121
        ]
      },
      "properties": {
        "name": "和興里",
        "name_eng": "Hesing Village"
      }
    },
    {
      "type": "feature",
      "geometry": {
        "type": "point",
        "coordinates": [
          120.360008,
          22.615912
        ]
      },
      "properties": {
        "name": "誠義兒童公園",
        "name_eng": "Chengyi Children`s Park"
      }
    },
    {
      "type": "feature",
      "geometry": {
        "type": "point",
        "coordinates": [
          120.360372,
          22.612702
        ]
      },
      "properties": {
        "name": "誠義路口",
        "name_eng": "Chengyi Rd. Intersection"
      }
    },
    {
      "type": "feature",
      "geometry": {
        "type": "point",
        "coordinates": [
          120.360503,
          22.608365
        ]
      },
      "properties": {
        "name": "誠義里",
        "name_eng": "Chengyi Village"
      }
    },
    {
      "type": "feature",
      "geometry": {
        "type": "point",
        "coordinates": [
          120.317488,
          22.743743
        ]
      },
      "properties": {
        "name": "捷運青埔站",
        "name_eng": "MRT Cingpu Station"
      }
    },
    {
      "type": "feature",
      "geometry": {
        "type": "point",
        "coordinates": [
          120.308575,
          22.605608
        ]
      },
      "properties": {
        "name": "勞工公園(捷運獅甲站)",
        "name_eng": "Labor Park (MRT Shihjia Station)"
      }
    },
    {
      "type": "feature",
      "geometry": {
        "type": "point",
        "coordinates": [
          120.360446,
          22.612691
        ]
      },
      "properties": {
        "name": "誠義路口",
        "name_eng": "Chengyi Rd. Intersection"
      }
    },
    {
      "type": "feature",
      "geometry": {
        "type": "point",
        "coordinates": [
          120.360067,
          22.615893
        ]
      },
      "properties": {
        "name": "誠義兒童公園",
        "name_eng": "Chengyi Children`s Park"
      }
    },