{
  "type": "FeatureCollection",
  "features": [
    {
      "type": "Feature",
      "geometry": {
        "type": "Point",
        "coordinates": [
          120.64501,
          24.178695
        ]
      },
      "properties": {
        "name": "iBike1.0_逢甲大學",
        "name_eng": "iBike1.0_Feng Chia University",
        "addr": "Fuxing Rd & Fengjia Rd Intersection",
        "addr_cht": "台中市福星路/逢甲路口(潮洋機車停車場)",
        "capacity": 70,
        "ServiceType": 1
      }
    },
    {
      "type": "Feature",
      "geometry": {
        "type": "Point",
        "coordinates": [
          120.638895,
          24.167898
        ]
      },
      "properties": {
        "name": "iBike1.0_秋紅谷",
        "name_eng": "iBike1.0_Maple Valley Park",
        "addr": "Chaofu Rd  & Chaoma Rd Intersection",
        "addr_cht": "台中市朝富路/朝馬路口(國光客運朝馬站對面)",
        "capacity": 44,
        "ServiceType": 1
      }
    },
    {
      "type": "Feature",
      "geometry": {
        "type": "Point",
        "coordinates": [
          120.648701,
          24.161438
        ]
      },
      "properties": {
        "name": "iBike1.0_市政府(文心樓)",
        "name_eng": "iBike1.0_Taichung City Hall (Wenxin Building)",
        "addr": "No.645, Sec. 2, Wenxin Rd",
        "addr_cht": "台中市文心路二段645號旁",
        "capacity": 44,
        "ServiceType": 1
      }
    },
    {
      "type": "Feature",
      "geometry": {
        "type": "Point",
        "coordinates": [
          120.6481,
          24.172421
        ]
      },
      "properties": {
        "name": "iBike1.0_福星公園",
        "name_eng": "iBike1.0_Fuxing Park",
        "addr": "Ln. 50, Baoqing St & Ln. 301, Sec. 2, Henan Rd",
        "addr_cht": "寶慶街50巷/河南路二段301巷",
        "capacity": 20,
        "ServiceType": 1
      }
    },
    {
      "type": "Feature",
      "geometry": {
        "type": "Point",
        "coordinates": [
          120.653109,
          24.168671
        ]
      },
      "properties": {
        "name": "iBike1.0_櫻花棒球場",
        "name_eng": "iBike1.0_Cherry Blossoms Baseball Field",
        "addr": "Yinghua Rd & Luoyang Rd Intersection",
        "addr_cht": "櫻花路/洛陽路口",
        "capacity": 38,
        "ServiceType": 1
      }
    },
    {
      "type": "Feature",
      "geometry": {
        "type": "Point",
        "coordinates": [
          120.655551552772,
          24.1658893012632
        ]
      },
      "properties": {
        "name": "iBike1.0_重慶公園",
        "name_eng": "iBike1.0_Chongqing Park",
        "addr": "Sec. 2, Situn Rd & Tianshui W. 6th St",
        "addr_cht": "西屯路二段/天水西六街",
        "capacity": 40,
        "ServiceType": 1
      }
    },
    {
      "type": "Feature",
      "geometry": {
        "type": "Point",
        "coordinates": [
          120.655825,
          24.159079
        ]
      },
      "properties": {
        "name": "iBike1.0_頂何厝",
        "name_eng": "iBike1.0_Ding He Cuo",
        "addr": "Sec. 2, Taiwan Blvd & Sec. 3, Dongxing Rd  Intersection",
        "addr_cht": "臺灣大道二段/東興路三段路口",
        "capacity": 24,
        "ServiceType": 1
      }
    },
    {
      "type": "Feature",
      "geometry": {
        "type": "Point",
        "coordinates": [
          120.648481,
          24.150814
        ]
      },
      "properties": {
        "name": "iBike1.0_公益大英街口",
        "name_eng": "iBike1.0_Gongyi Rd. / Daying St.",
        "addr": "Sec. 2, Gongyi Rd & Daying St Intersection",
        "addr_cht": "公益路二段/大英街口(星巴克前)",
        "capacity": 20,
        "ServiceType": 1
      }
    },
    {
      "type": "Feature",
      "geometry": {
        "type": "Point",
        "coordinates": [
          120.642929,
          24.166146
        ]
      },
      "properties": {
        "name": "iBike1.0_新光/遠百",
        "name_eng": "iBike1.0_Mitsukoshi Shin Kong / Top City Dept. Store",
        "addr": "Sec. 3, Taiwan Blvd & Sec. 2, Hueilai Rd",
        "addr_cht": "臺灣大道三段/惠來路二段",
        "capacity": 36,
        "ServiceType": 1
      }
    },
    {
      "type": "Feature",
      "geometry": {
        "type": "Point",
        "coordinates": [
          120.639231,
          24.174652
        ]
      },
      "properties": {
        "name": "iBike1.0_青海逢甲路口",
        "name_eng": "iBike1.0_Qinghai Rd. / Fengjia Rd.",
        "addr": "Sec. 2, Qinghai Rd & Fengjia Rd Intersection",
        "addr_cht": "青海路二段/逢甲路口",
        "capacity": 26,
        "ServiceType": 1
      }
    },
    {
      "type": "Feature",
      "geometry": {
        "type": "Point",
        "coordinates": [
          120.659171,
          24.156769
        ]
      },
      "properties": {
        "name": "iBike1.0_忠明國小",
        "name_eng": "iBike1.0_Chung-Ming Elementary School ",
        "addr": "Sec. 2, Taiwan Blvd & Zhongming S. Rd Intersection",
        "addr_cht": "臺灣大道二段/忠明南路口",
        "capacity": 30,
        "ServiceType": 1
      }
    },
    {
      "type": "Feature",
      "geometry": {
        "type": "Point",
        "coordinates": [
          120.639554,
          24.144259
        ]
      },
      "properties": {
        "name": "iBike1.0_大墩七街河南路口",
        "name_eng": "iBike1.0_Dadun 7th St. / Henan Rd.",
        "addr": "Dadun 7th St & Sec. 4, Henan Rd Intersection",
        "addr_cht": "大墩七街/河南路四段口",
        "capacity": 30,
        "ServiceType": 1
      }
    },
    {
      "type": "Feature",
      "geometry": {
        "type": "Point",
        "coordinates": [
          120.669111,
          24.157464
        ]
      },
      "properties": {
        "name": "iBike1.0_博館育德路口",
        "name_eng": "iBike1.0_Boguan Rd. / Yude Rd.",
        "addr": "Boguan Rd & Yude Rd Intersection",
        "addr_cht": "博館路/育德路口",
        "capacity": 38,
        "ServiceType": 1
      }
    },
    {
      "type": "Feature",
      "geometry": {
        "type": "Point",
        "coordinates": [
          120.66304,
          24.155525
        ]
      },
      "properties": {
        "name": "iBike1.0_科博館/金典酒店",
        "name_eng": "iBike1.0_National Museum of Natural Science/ The Splendor Hotel",
        "addr": "Sec. 1, Taiwan Blvd & Jianxing Rd",
        "addr_cht": "臺灣大道一段/健行路口",
        "capacity": 30,
        "ServiceType": 1
      }
    },
    {
      "type": "Feature",
      "geometry": {
        "type": "Point",
        "coordinates": [
          120.666281,
          24.152483
        ]
      },
      "properties": {
        "name": "iBike1.0_中正國小",
        "name_eng": "iBike1.0_Chung-Cheng Elementary School",
        "addr": "Yingcai Rd & Ln. 179, Sec. 2, Taiwan Blvd",
        "addr_cht": "英才路/臺灣大道二段179巷",
        "capacity": 26,
        "ServiceType": 1
      }
    },
    {
      "type": "Feature",
      "geometry": {
        "type": "Point",
        "coordinates": [
          120.671377,
          24.150107
        ]
      },
      "properties": {
        "name": "iBike1.0_茄苳腳",
        "name_eng": "iBike1.0_Qie Dong Jiao",
        "addr": "Sec. 1, Taiwan Blvd & Sec. 2, Meichuan E. Rd",
        "addr_cht": "臺灣大道一段/梅川東路二段",
        "capacity": 42,
        "ServiceType": 1
      }
    },
    {
      "type": "Feature",
      "geometry": {
        "type": "Point",
        "coordinates": [
          120.650534,
          24.146568
        ]
      },
      "properties": {
        "name": "iBike1.0_萬壽棒球場",
        "name_eng": "iBike1.0_Wan-Shou Baseball Field",
        "addr": "Sec. 1, Xiangshang Rd & Dajin St Intersection",
        "addr_cht": "向上路一段/大進街口",
        "capacity": 40,
        "ServiceType": 1
      }
    },
    {
      "type": "Feature",
      "geometry": {
        "type": "Point",
        "coordinates": [
          120.657475,
          24.150423
        ]
      },
      "properties": {
        "name": "iBike1.0_公益公園",
        "name_eng": "iBike1.0_Gong Yi Park",
        "addr": "Zhongming S. Rd & Gongyi Rd  Intersection",
        "addr_cht": "忠明南路/公益路口",
        "capacity": 22,
        "ServiceType": 1
      }
    },
    {
      "type": "Feature",
      "geometry": {
        "type": "Point",
        "coordinates": [
          120.666531,
          24.141249
        ]
      },
      "properties": {
        "name": "iBike1.0_大墩文化中心",
        "name_eng": "iBike1.0_Dadun Cultural Center",
        "addr": "Wuquan Rd & Yingcai Rd Intersection",
        "addr_cht": "五權路/英才路口",
        "capacity": 20,
        "ServiceType": 1
      }
    },
    {
      "type": "Feature",
      "geometry": {
        "type": "Point",
        "coordinates": [
          120.675577,
          24.151149
        ]
      },
      "properties": {
        "name": "iBike1.0_英士公園",
        "name_eng": "iBike1.0_Ying Shi Park",
        "addr": "Rixing St & Yingshi Rd Intersection",
        "addr_cht": "日興街/英士路口",
        "capacity": 64,
        "ServiceType": 1
      }
    },
    {
      "type": "Feature",
      "geometry": {
        "type": "Point",
        "coordinates": [
          120.654096,
          24.155731
        ]
      },
      "properties": {
        "name": "iBike1.0_大隆東興路口",
        "name_eng": "iBike1.0_Dalong Rd./ Dongxing Rd.",
        "addr": "No.40, Dalong Rd",
        "addr_cht": "大隆路40號前",
        "capacity": 24,
        "ServiceType": 1
      }
    },
    {
      "type": "Feature",
      "geometry": {
        "type": "Point",
        "coordinates": [
          120.646119,
          24.146743
        ]
      },
      "properties": {
        "name": "iBike1.0_文心森林公園",
        "name_eng": "iBike1.0_Wen-Hsin Forest Park",
        "addr": "Sec. 1, Wenxin Rd  &  Sec. 2, Xiangshang Rd Intersection",
        "addr_cht": "文心路一段/向上路二段口",
        "capacity": 30,
        "ServiceType": 1
      }
    },
    {
      "type": "Feature",
      "geometry": {
        "type": "Point",
        "coordinates": [
          120.646885,
          24.139937
        ]
      },
      "properties": {
        "name": "iBike1.0_五權西文心路口",
        "name_eng": "iBike1.0_Wuquan W. Rd./ Wenxin Rd.",
        "addr": "Sec. 2, Wuquan W. Rd & Sec. 1, Wenxin Rd Intersection",
        "addr_cht": "五權西路二段/文心路一段路口",
        "capacity": 30,
        "ServiceType": 1
      }
    },
    {
      "type": "Feature",
      "geometry": {
        "type": "Point",
        "coordinates": [
          120.678756,
          24.138299
        ]
      },
      "properties": {
        "name": "iBike1.0_臺中州廳",
        "name_eng": "iBike1.0_Taichung Prefectural Hall",
        "addr": "Shifu Rd & Minquan Rd Intersection",
        "addr_cht": "市府路/民權路口",
        "capacity": 24,
        "ServiceType": 1
      }
    },
    {
      "type": "Feature",
      "geometry": {
        "type": "Point",
        "coordinates": [
          120.684231,
          24.142596
        ]
      },
      "properties": {
        "name": "iBike1.0_臺中公園",
        "name_eng": "iBike1.0_Taichung Park ",
        "addr": "Gongyuan Rd & Sec. 2, Ziyou Rd Intersection",
        "addr_cht": "公園路/自由路二段口",
        "capacity": 44,
        "ServiceType": 1
      }
    },
    {
      "type": "Feature",
      "geometry": {
        "type": "Point",
        "coordinates": [
          120.689117,
          24.153274
        ]
      },
      "properties": {
        "name": "iBike1.0_臺中孔廟",
        "name_eng": "iBike1.0_Confucius Temple",
        "addr": "Sec. 2, Shuangshi Rd & Lixing Rd Intersection",
        "addr_cht": "雙十路二段/力行路口",
        "capacity": 32,
        "ServiceType": 1
      }
    },
    {
      "type": "Feature",
      "geometry": {
        "type": "Point",
        "coordinates": [
          120.673279,
          24.165115
        ]
      },
      "properties": {
        "name": "iBike1.0_太原北中清路口",
        "name_eng": "iBike1.0_Taiyuan N. Rd./ Zhongqing Rd.",
        "addr": "Taiyuan N. Rd & Sec. 1, Zhongqing Rd Intersection",
        "addr_cht": "太原北路/中清路一段口",
        "capacity": 30,
        "ServiceType": 1
      }
    },
    {
      "type": "Feature",
      "geometry": {
        "type": "Point",
        "coordinates": [
          120.671185,
          24.145214
        ]
      },
      "properties": {
        "name": "iBike1.0_臺中教育大學",
        "name_eng": "iBike1.0_National Taichung University of Education",
        "addr": "Wuquan Rd & Minquan Rd Intersection",
        "addr_cht": "五權路/民權路口",
        "capacity": 18,
        "ServiceType": 1
      }
    },
    {
      "type": "Feature",
      "geometry": {
        "type": "Point",
        "coordinates": [
          120.681155,
          24.157757
        ]
      },
      "properties": {
        "name": "iBike1.0_學士育德路口",
        "name_eng": "iBike1.0_Xueshi Rd./ Yude Rd.",
        "addr": "Xueshi Rd &Yude Rd Intersection",
        "addr_cht": "學士路/育德路口(中正停車場廣場)",
        "capacity": 36,
        "ServiceType": 1
      }
    },
    {
      "type": "Feature",
      "geometry": {
        "type": "Point",
        "coordinates": [
          120.673707,
          24.13654
        ]
      },
      "properties": {
        "name": "iBike1.0_中山地政事務所",
        "name_eng": "iBike1.0_Zhongshan Land Office",
        "addr": "Sec. 1, Sanmin Rd & Ln. 156, Sec. 1, Sanmin Rd Intersection",
        "addr_cht": "三民路一段/三民路一段156巷口",
        "capacity": 16,
        "ServiceType": 1
      }
    },
    {
      "type": "Feature",
      "geometry": {
        "type": "Point",
        "coordinates": [
          120.663045,
          24.150621
        ]
      },
      "properties": {
        "name": "iBike1.0_臺中市民廣場",
        "name_eng": "iBike1.0_Taichung City Park",
        "addr": "Zhongxing St & Gongyi Rd  Intersection",
        "addr_cht": "中興街/公益路口",
        "capacity": 38,
        "ServiceType": 1
      }
    },
    {
      "type": "Feature",
      "geometry": {
        "type": "Point",
        "coordinates": [
          120.665901,
          24.156199
        ]
      },
      "properties": {
        "name": "iBike1.0_國立自然科學博物館",
        "name_eng": "iBike1.0_National Museum of Natural Science",
        "addr": "No.101, Boguan Rd",
        "addr_cht": "博館路101號對面",
        "capacity": 34,
        "ServiceType": 1
      }
    },
    {
      "type": "Feature",
      "geometry": {
        "type": "Point",
        "coordinates": [
          120.664773,
          24.146778
        ]
      },
      "properties": {
        "name": "iBike1.0_經國園道",
        "name_eng": "iBike1.0_Greenway",
        "addr": "Sec. 1, Xiangshang Rd &  Yingcai Rd Intersection",
        "addr_cht": "向上路一段/英才路口",
        "capacity": 42,
        "ServiceType": 1
      }
    },
    {
      "type": "Feature",
      "geometry": {
        "type": "Point",
        "coordinates": [
          120.661836,
          24.140682
        ]
      },
      "properties": {
        "name": "iBike1.0_國立臺灣美術館",
        "name_eng": "iBike1.0_National Taiwan Museum of Fine Arts",
        "addr": "Sec. 1, Wucyuan W. Rd &Sec. 1, Meicun Rd",
        "addr_cht": "五權西路一段/美村路一段口",
        "capacity": 20,
        "ServiceType": 1
      }
    },
    {
      "type": "Feature",
      "geometry": {
        "type": "Point",
        "coordinates": [
          120.682416,
          24.166078
        ]
      },
      "properties": {
        "name": "iBike1.0_北區行政大樓",
        "name_eng": "iBike1.0_North District Administration Building",
        "addr": "Yongxing St & Sec. 2, Taiyuan Rd Intersection",
        "addr_cht": "永興街/太原路二段口",
        "capacity": 26,
        "ServiceType": 1
      }
    },
    {
      "type": "Feature",
      "geometry": {
        "type": "Point",
        "coordinates": [
          120.696704,
          24.164742
        ]
      },
      "properties": {
        "name": "iBike1.0_三光太原路口",
        "name_eng": "iBike1.0_Sanguang Rd. / Taiyuan Rd.",
        "addr": "Sanguang Rd & Sec. 3, Taiyuan Rd Intersection",
        "addr_cht": "三光巷/太原路三段口",
        "capacity": 36,
        "ServiceType": 1
      }
    },
    {
      "type": "Feature",
      "geometry": {
        "type": "Point",
        "coordinates": [
          120.694267,
          24.170187
        ]
      },
      "properties": {
        "name": "iBike1.0_北屯兒童公園",
        "name_eng": "iBike1.0_Beitun Children's Park",
        "addr": "Sec. 1, Xing’an Rd & Sec. 4, Beiping Rd Intersection",
        "addr_cht": "興安路一段/北平路四段口",
        "capacity": 26,
        "ServiceType": 1
      }
    },
    {
      "type": "Feature",
      "geometry": {
        "type": "Point",
        "coordinates": [
          120.693931,
          24.151573
        ]
      },
      "properties": {
        "name": "iBike1.0_力行國小",
        "name_eng": "iBike1.0_Li Sing Elementary School",
        "addr": "Lixing Rd & Jinhua Rd Intersection",
        "addr_cht": "力行路/進化路口",
        "capacity": 30,
        "ServiceType": 1
      }
    },
    {
      "type": "Feature",
      "geometry": {
        "type": "Point",
        "coordinates": [
          120.686487,
          24.149175
        ]
      },
      "properties": {
        "name": "iBike1.0_臺中一中",
        "name_eng": "iBike1.0_Taichung First Senior High School",
        "addr": "Yucai St & Zunxian St Intersection",
        "addr_cht": "育才街/尊賢街口",
        "capacity": 40,
        "ServiceType": 1
      }
    },
    {
      "type": "Feature",
      "geometry": {
        "type": "Point",
        "coordinates": [
          120.662753,
          24.161092
        ]
      },
      "properties": {
        "name": "iBike1.0_忠誠公園",
        "name_eng": "iBike1.0_Chong Cheng Park",
        "addr": "Zhongming Rd & Sec. 1, Huamei W. St Intersection",
        "addr_cht": "忠明路/華美西街一段口",
        "capacity": 50,
        "ServiceType": 1
      }
    },
    {
      "type": "Feature",
      "geometry": {
        "type": "Point",
        "coordinates": [
          120.678381,
          24.167109
        ]
      },
      "properties": {
        "name": "iBike1.0_賴明公園",
        "name_eng": "iBike1.0_Lai Ming Park",
        "addr": "Sec. 3, Meichuan E. Rd & Sec. 4, Hankou Rd Intersection",
        "addr_cht": "梅川東路三段/漢口路四段口",
        "capacity": 40,
        "ServiceType": 1
      }
    },
    {
      "type": "Feature",
      "geometry": {
        "type": "Point",
        "coordinates": [
          120.660673,
          24.171233
        ]
      },
      "properties": {
        "name": "iBike1.0_文華高中",
        "name_eng": "iBike1.0_Wen-Hua Senior High School",
        "addr": "Sec. 3, Wenxin Rd & Sec. 1, Henan Rd Intersection",
        "addr_cht": "文心路三段/河南路一段口",
        "capacity": 48,
        "ServiceType": 1
      }
    },
    {
      "type": "Feature",
      "geometry": {
        "type": "Point",
        "coordinates": [
          120.661146,
          24.132292
        ]
      },
      "properties": {
        "name": "iBike1.0_崇倫公園",
        "name_eng": "iBike1.0_Chung Luen Park",
        "addr": "Sec. 1, Nantun Rd & Sec. 1, Meicun Rd., West Dist Intersection",
        "addr_cht": "南屯路一段/美村路二段口",
        "capacity": 30,
        "ServiceType": 1
      }
    },
    {
      "type": "Feature",
      "geometry": {
        "type": "Point",
        "coordinates": [
          120.68436,
          24.13738
        ]
      },
      "properties": {
        "name": "iBike1.0_臺中火車站(建國路)",
        "name_eng": "iBike1.0_Taichung Railway Station(Jianguo Rd.)",
        "addr": "Jianguo Rd & Zhongshan Rd Intersection",
        "addr_cht": "建國路/中山路口",
        "capacity": 38,
        "ServiceType": 1
      }
    },
    {
      "type": "Feature",
      "geometry": {
        "type": "Point",
        "coordinates": [
          120.634399,
          24.156493
        ]
      },
      "properties": {
        "name": "iBike1.0_黎明國中",
        "name_eng": "iBike1.0_Li Ming Junior High School",
        "addr": "Sec. 2, Liming Rd., Nantun Dist & Shizheng S. 2nd Rd Intersection",
        "addr_cht": "黎明路二段/市政南二路口",
        "capacity": 32,
        "ServiceType": 1
      }
    },
    {
      "type": "Feature",
      "geometry": {
        "type": "Point",
        "coordinates": [
          120.64347,
          24.132054
        ]
      },
      "properties": {
        "name": "iBike1.0_豐樂雕塑公園",
        "name_eng": "iBike1.0_Fromlove Park",
        "addr": "Wenxin S. 5th Rd & Xiangxin S. Rd Intersection",
        "addr_cht": "文心南五路/向心南路口",
        "capacity": 32,
        "ServiceType": 1
      }
    },
    {
      "type": "Feature",
      "geometry": {
        "type": "Point",
        "coordinates": [
          120.6404,
          24.153645
        ]
      },
      "properties": {
        "name": "iBike1.0_惠文高中",
        "name_eng": "iBike1.0_Hui-Wen High School",
        "addr": "Daye Rd & Sec. 2, Huizhong Rd Intersection",
        "addr_cht": "大業路/惠中路二段口",
        "capacity": 44,
        "ServiceType": 1
      }
    },
    {
      "type": "Feature",
      "geometry": {
        "type": "Point",
        "coordinates": [
          120.644939,
          24.172842
        ]
      },
      "properties": {
        "name": "iBike1.0_上石公園",
        "name_eng": "iBike1.0_Shang Shi Park",
        "addr": "Sec. 2, Xitun Rd & Shangshi N. 5th Ln Intersection",
        "addr_cht": "西屯路二段/上石北五巷口",
        "capacity": 18,
        "ServiceType": 1
      }
    },
    {
      "type": "Feature",
      "geometry": {
        "type": "Point",
        "coordinates": [
          120.670979,
          24.155624
        ]
      },
      "properties": {
        "name": "iBike1.0_英才公園",
        "name_eng": "iBike1.0_Ying Cai Park",
        "addr": "Yingcai Rd & Minquan Rd Intersection",
        "addr_cht": "英才路/民權路口",
        "capacity": 32,
        "ServiceType": 1
      }
    },
    {
      "type": "Feature",
      "geometry": {
        "type": "Point",
        "coordinates": [
          120.668407,
          24.163681
        ]
      },
      "properties": {
        "name": "iBike1.0_中德公園",
        "name_eng": "iBike1.0_Zhong De Park",
        "addr": "Zhongming 6th St & Zhongtai W. Rd Intersection",
        "addr_cht": "忠明六街/忠太西路口",
        "capacity": 28,
        "ServiceType": 1
      }
    },
    {
      "type": "Feature",
      "geometry": {
        "type": "Point",
        "coordinates": [
          120.644625,
          24.13593
        ]
      },
      "properties": {
        "name": "iBike1.0_向心兒童公園",
        "name_eng": "iBike1.0_Xiang Xin Children’s Park",
        "addr": "Wenxin S. 2nd Rd & Xiangxin S. Rd Intersection",
        "addr_cht": "文心南二路/向心南路口",
        "capacity": 28,
        "ServiceType": 1
      }
    },
    {
      "type": "Feature",
      "geometry": {
        "type": "Point",
        "coordinates": [
          120.644537,
          24.160994
        ]
      },
      "properties": {
        "name": "iBike1.0_市政公園停車場",
        "name_eng": "iBike1.0_City Hall Garden Parking",
        "addr": "Shizheng N. 5th Rd. & Sec. 1, Huizhong Rd Intersection",
        "addr_cht": "市政北五路/惠中路一段口",
        "capacity": 30,
        "ServiceType": 1
      }
    },
    {
      "type": "Feature",
      "geometry": {
        "type": "Point",
        "coordinates": [
          120.688075,
          24.175306
        ]
      },
      "properties": {
        "name": "iBike1.0_民俗公園",
        "name_eng": "iBike1.0_Min Su Park",
        "addr": "Sec. 2, Rehe Rd & Sec. 2, Dalian Rd",
        "addr_cht": "熱河路二段/大連路二段口",
        "capacity": 30,
        "ServiceType": 1
      }
    },
    {
      "type": "Feature",
      "geometry": {
        "type": "Point",
        "coordinates": [
          120.68447,
          24.13201
        ]
      },
      "properties": {
        "name": "iBike1.0_臺中國小",
        "name_eng": "iBike1.0_Taichung Elementary School",
        "addr": "Xinyi St & Taizhong Rd Intersection",
        "addr_cht": "信義街/臺中路口",
        "capacity": 50,
        "ServiceType": 1
      }
    },
    {
      "type": "Feature",
      "geometry": {
        "type": "Point",
        "coordinates": [
          120.677198,
          24.12391
        ]
      },
      "properties": {
        "name": "iBike1.0_國立中興大學",
        "name_eng": "iBike1.0_National Chung Hsing University",
        "addr": "Xingda Rd & Rende St Intersection",
        "addr_cht": "興大路/仁德街口",
        "capacity": 20,
        "ServiceType": 1
      }
    },
    {
      "type": "Feature",
      "geometry": {
        "type": "Point",
        "coordinates": [
          120.67816,
          24.12811
        ]
      },
      "properties": {
        "name": "iBike1.0_忠孝國光路口",
        "name_eng": "iBike1.0_Zhongxiao Guoguang Intersection",
        "addr": "Zhongxiao Rd & Guoguang Rd Intersection",
        "addr_cht": "忠孝路/國光路口",
        "capacity": 36,
        "ServiceType": 1
      }
    },
    {
      "type": "Feature",
      "geometry": {
        "type": "Point",
        "coordinates": [
          120.69059,
          24.12956
        ]
      },
      "properties": {
        "name": "iBike1.0_大智國小",
        "name_eng": "iBike1.0_Dazhi Elementary School",
        "addr": "Jiande St & Dazhi Rd Intersection",
        "addr_cht": "建德街/大智路口",
        "capacity": 26,
        "ServiceType": 1
      }
    },
    {
      "type": "Feature",
      "geometry": {
        "type": "Point",
        "coordinates": [
          120.6741,
          24.15928
        ]
      },
      "properties": {
        "name": "iBike1.0_健行國小",
        "name_eng": "iBike1.0_Jian Xing Elementary School",
        "addr": "Jianxing Rd & Ln. 664, Jianxing Rd Intersection",
        "addr_cht": "健行路/健行路664巷口",
        "capacity": 40,
        "ServiceType": 1
      }
    },
    {
      "type": "Feature",
      "geometry": {
        "type": "Point",
        "coordinates": [
          120.68827,
          24.12627
        ]
      },
      "properties": {
        "name": "iBike1.0_東峰公園",
        "name_eng": "iBike1.0_Dongfeng Park",
        "addr": "Renhe Rd & Lide E. St Intersection",
        "addr_cht": "仁和路/立德東街口",
        "capacity": 34,
        "ServiceType": 1
      }
    },
    {
      "type": "Feature",
      "geometry": {
        "type": "Point",
        "coordinates": [
          120.66496,
          24.16482
        ]
      },
      "properties": {
        "name": "iBike1.0_太原華美街口",
        "name_eng": "iBike1.0_Taiyuan Rd./ Huamei St.",
        "addr": "Sec. 1, Taiyuan Rd & Sec. 2, Huamei St Intersection",
        "addr_cht": "太原路一段/華美街二段口",
        "capacity": 28,
        "ServiceType": 1
      }
    },
    {
      "type": "Feature",
      "geometry": {
        "type": "Point",
        "coordinates": [
          120.6783,
          24.14692
        ]
      },
      "properties": {
        "name": "iBike1.0_柳川東中華路口",
        "name_eng": "iBike1.0_Liuchuan E. Rd. / Zhonghua Rd.",
        "addr": "Sec. 4, Liuchuan E. Rd & Sec. 2, Zhonghua Rd Intersection",
        "addr_cht": "柳川東路四段/中華路二段口",
        "capacity": 22,
        "ServiceType": 1
      }
    },
    {
      "type": "Feature",
      "geometry": {
        "type": "Point",
        "coordinates": [
          120.66714,
          24.11898
        ]
      },
      "properties": {
        "name": "iBike1.0_忠明南美村南路口",
        "name_eng": "iBike1.0_Zhongming S. Rd. / Meicun S. Rd.",
        "addr": "Zhongming S. Rd & Meicun S. Rd Intersection",
        "addr_cht": "忠明南路/美村南路口",
        "capacity": 28,
        "ServiceType": 1
      }
    },
    {
      "type": "Feature",
      "geometry": {
        "type": "Point",
        "coordinates": [
          120.66133,
          24.12175
        ]
      },
      "properties": {
        "name": "iBike1.0_忠明南復興路口",
        "name_eng": "iBike1.0_Zhongming S. Rd. / Fuxing Rd.",
        "addr": "Zhongming S & Sec. 2, Fuxing Rd Intersection",
        "addr_cht": "忠明南路/復興路二段口",
        "capacity": 24,
        "ServiceType": 1
      }
    },
    {
      "type": "Feature",
      "geometry": {
        "type": "Point",
        "coordinates": [
          120.70139,
          24.15089
        ]
      },
      "properties": {
        "name": "iBike1.0_新福公園",
        "name_eng": "iBike1.0_Xinfu Park",
        "addr": "Sec. 2, Hanxi E. Rd & Sec. 4, Zhongshan Rd Intersection",
        "addr_cht": "旱溪東路二段/中山路四段口",
        "capacity": 14,
        "ServiceType": 1
      }
    },
    {
      "type": "Feature",
      "geometry": {
        "type": "Point",
        "coordinates": [
          120.67137,
          24.1149
        ]
      },
      "properties": {
        "name": "iBike1.0_積善公園",
        "name_eng": "iBike1.0_Jishan Park",
        "addr": "Daming Rd & Xingda Rd Intersection",
        "addr_cht": "大明路/興大路口",
        "capacity": 26,
        "ServiceType": 1
      }
    },
    {
      "type": "Feature",
      "geometry": {
        "type": "Point",
        "coordinates": [
          120.6759,
          24.17106
        ]
      },
      "properties": {
        "name": "iBike1.0_山西公園",
        "name_eng": "iBike1.0_Shanxi Park",
        "addr": "Sec. 2, Shanxi Rd & Sec. 2, Beiping Rd Intersection",
        "addr_cht": "山西路二段/北平路二段口",
        "capacity": 24,
        "ServiceType": 1
      }
    },
    {
      "type": "Feature",
      "geometry": {
        "type": "Point",
        "coordinates": [
          120.69152,
          24.16712
        ]
      },
      "properties": {
        "name": "iBike1.0_北屯區文昌國小",
        "name_eng": "iBike1.0_Beitun Dist. Wun Chang Elementary School",
        "addr": "Sec. 1, Xing’an Rd & Sec. 4, Qingdao Rd Intersection",
        "addr_cht": "興安路一段/青島路四段口",
        "capacity": 20,
        "ServiceType": 1
      }
    },
    {
      "type": "Feature",
      "geometry": {
        "type": "Point",
        "coordinates": [
          120.71251,
          24.13747
        ]
      },
      "properties": {
        "name": "iBike1.0_祥順運動公園",
        "name_eng": "iBike1.0_Xiangshun Sports Park",
        "addr": "Ln. 87, Yichang Rd & Yichang Rd Intersection",
        "addr_cht": "宜昌路87巷/宜昌路口",
        "capacity": 20,
        "ServiceType": 1
      }
    },
    {
      "type": "Feature",
      "geometry": {
        "type": "Point",
        "coordinates": [
          120.66488,
          24.11674
        ]
      },
      "properties": {
        "name": "iBike1.0_永興公園",
        "name_eng": "iBike1.0_Yongxing Park",
        "addr": "Gongxue Rd & Gongxue 1st St Intersection",
        "addr_cht": "工學路/工學一街口",
        "capacity": 20,
        "ServiceType": 1
      }
    },
    {
      "type": "Feature",
      "geometry": {
        "type": "Point",
        "coordinates": [
          120.66201,
          24.11328
        ]
      },
      "properties": {
        "name": "iBike1.0_臺中高工",
        "name_eng": "iBike1.0_National Taichung Industrial High School",
        "addr": "Gaogong Rd & Gongxue 2nd St Intersection",
        "addr_cht": "高工路/工學二街口",
        "capacity": 40,
        "ServiceType": 1
      }
    },
    {
      "type": "Feature",
      "geometry": {
        "type": "Point",
        "coordinates": [
          120.71382,
          24.24529
        ]
      },
      "properties": {
        "name": "iBike1.0_豐原高商",
        "name_eng": "iBike1.0_National Fengyuan Commercial High School",
        "addr": "Yuanhuan S. Rd & Zhongshan Rd Intersection",
        "addr_cht": "圓環南路/中山路口",
        "capacity": 26,
        "ServiceType": 1
      }
    },
    {
      "type": "Feature",
      "geometry": {
        "type": "Point",
        "coordinates": [
          120.69673,
          24.15554
        ]
      },
      "properties": {
        "name": "iBike1.0_興進園道",
        "name_eng": "iBike1.0_Xingjin Greenway ",
        "addr": "Xingjin Rd & Ln. 76, Xingjin Rd Intersection",
        "addr_cht": "興進路/興進路76巷口",
        "capacity": 20,
        "ServiceType": 1
      }
    },
    {
      "type": "Feature",
      "geometry": {
        "type": "Point",
        "coordinates": [
          120.71975,
          24.15436
        ]
      },
      "properties": {
        "name": "iBike1.0_新平國小",
        "name_eng": "iBike1.0_Sinping Elementary School",
        "addr": "Ln. 162, Yude Rd & Aly. 9, Ln. 274, Shuxiao Rd Intersection",
        "addr_cht": "育德路162巷/樹孝路274巷9弄口",
        "capacity": 16,
        "ServiceType": 1
      }
    },
    {
      "type": "Feature",
      "geometry": {
        "type": "Point",
        "coordinates": [
          120.62367,
          24.3445
        ]
      },
      "properties": {
        "name": "iBike1.0_大甲鎮瀾宮",
        "name_eng": "iBike1.0_Dajia Jenn Lann Temple",
        "addr": "Zhenlan St & Zhonghua St Intersection",
        "addr_cht": "鎮瀾街/中華街口",
        "capacity": 30,
        "ServiceType": 1
      }
    },
    {
      "type": "Feature",
      "geometry": {
        "type": "Point",
        "coordinates": [
          120.66969,
          24.12745
        ]
      },
      "properties": {
        "name": "iBike1.0_國立公共資訊圖書館",
        "name_eng": "iBike1.0_National Library of Public Information",
        "addr": "No.100, Wuquan S",
        "addr_cht": "五權南路100號前",
        "capacity": 30,
        "ServiceType": 1
      }
    },
    {
      "type": "Feature",
      "geometry": {
        "type": "Point",
        "coordinates": [
          120.64012,
          24.16407
        ]
      },
      "properties": {
        "name": "iBike1.0_臺中國家歌劇院",
        "name_eng": "iBike1.0_National Taichung Theater",
        "addr": "Huimin Rd & Shizheng N. 6th Rd Intersection",
        "addr_cht": "惠民路/市政北六路口",
        "capacity": 30,
        "ServiceType": 1
      }
    },
    {
      "type": "Feature",
      "geometry": {
        "type": "Point",
        "coordinates": [
          120.71864,
          24.25259
        ]
      },
      "properties": {
        "name": "iBike1.0_豐原廟東夜市",
        "name_eng": "iBike1.0_Fengyuan Miao Dong Night Market",
        "addr": "Ln. 212, Zhongzheng Rd & Xinyi St Intersection",
        "addr_cht": "中正路212巷/信義街口",
        "capacity": 18,
        "ServiceType": 1
      }
    },
    {
      "type": "Feature",
      "geometry": {
        "type": "Point",
        "coordinates": [
          120.69669,
          24.13858
        ]
      },
      "properties": {
        "name": "iBike1.0_建成樂業路口",
        "name_eng": "iBike1.0_Jiancheng Rd./Leye Rd.",
        "addr": "Jiancheng Rd & Leye Rd Intersection",
        "addr_cht": "建成路/樂業路口",
        "capacity": 26,
        "ServiceType": 1
      }
    },
    {
      "type": "Feature",
      "geometry": {
        "type": "Point",
        "coordinates": [
          120.72265,
          24.25452
        ]
      },
      "properties": {
        "name": "iBike1.0_豐原火車站",
        "name_eng": "iBike1.0_Fengyuan Station",
        "addr": "Zhongzheng Rd & Dongbei St Intersection",
        "addr_cht": "中正路/東北街口",
        "capacity": 34,
        "ServiceType": 1
      }
    },
    {
      "type": "Feature",
      "geometry": {
        "type": "Point",
        "coordinates": [
          120.70653,
          24.16621
        ]
      },
      "properties": {
        "name": "iBike1.0_三甲公園",
        "name_eng": "iBike1.0_Sanjia Park",
        "addr": "Sec. 3, Hanxi E. Rd & Jingxian S. 1st Rd Intersection",
        "addr_cht": "旱溪東路三段/景賢南一路口",
        "capacity": 30,
        "ServiceType": 1
      }
    },
    {
      "type": "Feature",
      "geometry": {
        "type": "Point",
        "coordinates": [
          120.68161,
          24.14859
        ]
      },
      "properties": {
        "name": "iBike1.0_北區太平國小",
        "name_eng": "iBike1.0_North Tai-Ping Elementary School",
        "addr": "Taiping Rd & Dacheng St Intersection",
        "addr_cht": "太平路/大誠街口",
        "capacity": 34,
        "ServiceType": 1
      }
    },
    {
      "type": "Feature",
      "geometry": {
        "type": "Point",
        "coordinates": [
          120.66752,
          24.18782
        ]
      },
      "properties": {
        "name": "iBike1.0_敦化公園",
        "name_eng": "iBike1.0_Dunhua Park",
        "addr": "Houzhuang 7th St & Sec. 1, Dunhua Rd Intersection",
        "addr_cht": "后庄七街/敦化路一段口",
        "capacity": 24,
        "ServiceType": 1
      }
    },
    {
      "type": "Feature",
      "geometry": {
        "type": "Point",
        "coordinates": [
          120.71441,
          24.24903
        ]
      },
      "properties": {
        "name": "iBike1.0_豐原地政事務所",
        "name_eng": "iBike1.0_Fengyuan Land Office",
        "addr": "Xi’an St & Xing’an St Intersection",
        "addr_cht": "西安街/興安街口",
        "capacity": 24,
        "ServiceType": 1
      }
    },
    {
      "type": "Feature",
      "geometry": {
        "type": "Point",
        "coordinates": [
          120.69004,
          24.11029
        ]
      },
      "properties": {
        "name": "iBike1.0_內新市場",
        "name_eng": "iBike1.0_Neixin Market",
        "addr": "Sec. 2, Zhongxing Rd & Sec. 1, Dongrong Rd Intersection",
        "addr_cht": "中興路二段/東榮路一段口",
        "capacity": 18,
        "ServiceType": 1
      }
    },
    {
      "type": "Feature",
      "geometry": {
        "type": "Point",
        "coordinates": [
          120.62603,
          24.35431
        ]
      },
      "properties": {
        "name": "iBike1.0_大甲區壘球場",
        "name_eng": "iBike1.0_Dajia District Softball Field",
        "addr": "Jinshang St & Yanmen Rd Intersection",
        "addr_cht": "錦上街/雁門路口",
        "capacity": 14,
        "ServiceType": 1
      }
    },
    {
      "type": "Feature",
      "geometry": {
        "type": "Point",
        "coordinates": [
          120.62264,
          24.34981
        ]
      },
      "properties": {
        "name": "iBike1.0_大甲區公所",
        "name_eng": "iBike1.0_Dajia District Office",
        "addr": "Xinzheng Rd & Sanmin Rd Intersection",
        "addr_cht": "新政路/三民路口",
        "capacity": 18,
        "ServiceType": 1
      }
    },
    {
      "type": "Feature",
      "geometry": {
        "type": "Point",
        "coordinates": [
          120.62688,
          24.34418
        ]
      },
      "properties": {
        "name": "iBike1.0_大甲火車站",
        "name_eng": "iBike1.0_Dajia Station",
        "addr": "Sec. 1, Zhongshan Rd & Jianggong Rd Intersection ",
        "addr_cht": "中山路一段/蔣公路口",
        "capacity": 32,
        "ServiceType": 1
      }
    },
    {
      "type": "Feature",
      "geometry": {
        "type": "Point",
        "coordinates": [
          120.615759,
          24.350388
        ]
      },
      "properties": {
        "name": "iBike1.0_大甲體育場",
        "name_eng": "iBike1.0_Dajia Stadium",
        "addr": "Da’angang Rd & Ln. 53, Da’angang Rd Intersection",
        "addr_cht": "大安港路/大安港路53巷口",
        "capacity": 20,
        "ServiceType": 1
      }
    },
    {
      "type": "Feature",
      "geometry": {
        "type": "Point",
        "coordinates": [
          120.74168,
          24.25573
        ]
      },
      "properties": {
        "name": "iBike1.0_豐原高中",
        "name_eng": "iBike1.0_National Fengyuan Senior High School",
        "addr": "Shuiyuan Rd & Ln. 129, Shuiyuan Rd Intersection",
        "addr_cht": "水源路/水源路129巷口",
        "capacity": 26,
        "ServiceType": 1
      }
    },
    {
      "type": "Feature",
      "geometry": {
        "type": "Point",
        "coordinates": [
          120.73726,
          24.13121
        ]
      },
      "properties": {
        "name": "iBike1.0_一江橋",
        "name_eng": "iBike1.0_Yi Jiang Bridge",
        "addr": "Guangxing Rd & Sec. 1, Changlong Rd Intersection",
        "addr_cht": "光興路/長龍路一段口",
        "capacity": 20,
        "ServiceType": 1
      }
    },
    {
      "type": "Feature",
      "geometry": {
        "type": "Point",
        "coordinates": [
          120.71541,
          24.14903
        ]
      },
      "properties": {
        "name": "iBike1.0_新平立體停車場",
        "name_eng": "iBike1.0_Xinping Parking Garage",
        "addr": "Sec. 3, Zhongshan Rd & Shuxiao Rd Intersection ",
        "addr_cht": "中山路三段/樹孝路口",
        "capacity": 30,
        "ServiceType": 1
      }
    },
    {
      "type": "Feature",
      "geometry": {
        "type": "Point",
        "coordinates": [
          120.65435,
          24.11851
        ]
      },
      "properties": {
        "name": "iBike1.0_樹德停車場",
        "name_eng": "iBike1.0_Shude Parking Lot ",
        "addr": "Ln. 146, Defu Rd & Deji St Intersection",
        "addr_cht": "德富路146巷/德吉街口",
        "capacity": 24,
        "ServiceType": 1
      }
    },
    {
      "type": "Feature",
      "geometry": {
        "type": "Point",
        "coordinates": [
          120.71478,
          24.11776
        ]
      },
      "properties": {
        "name": "iBike1.0_長億公園",
        "name_eng": "iBike1.0_Changyi Park",
        "addr": "Yongcheng N. Rd & Ln. 151, Yongcheng N. Rd Intersection ",
        "addr_cht": "永成北路/永成北路151巷口",
        "capacity": 26,
        "ServiceType": 1
      }
    },
    {
      "type": "Feature",
      "geometry": {
        "type": "Point",
        "coordinates": [
          120.71322,
          24.14442
        ]
      },
      "properties": {
        "name": "iBike1.0_宜昌兒童公園",
        "name_eng": "iBike1.0_Yichang Children's Park",
        "addr": "No.615, Shijia Rd",
        "addr_cht": "十甲路615號對面",
        "capacity": 20,
        "ServiceType": 1
      }
    },
    {
      "type": "Feature",
      "geometry": {
        "type": "Point",
        "coordinates": [
          120.65271,
          24.12212
        ]
      },
      "properties": {
        "name": "iBike1.0_中山醫學大學",
        "name_eng": "iBike1.0_Chung Shan Medical University",
        "addr": "Sec. 1, Jianguo N. Rd & Wenxin S. Rd Intersection ",
        "addr_cht": "建國北路一段/文心南路口",
        "capacity": 20,
        "ServiceType": 1
      }
    },
    {
      "type": "Feature",
      "geometry": {
        "type": "Point",
        "coordinates": [
          120.72047,
          24.13094
        ]
      },
      "properties": {
        "name": "iBike1.0_太平區運動場",
        "name_eng": "iBike1.0_Taiping Sadium",
        "addr": "Sec. 1, Yongping Rd & Zhongxing E. Rd Intersection ",
        "addr_cht": "永平路一段/中興東路口",
        "capacity": 22,
        "ServiceType": 1
      }
    },
    {
      "type": "Feature",
      "geometry": {
        "type": "Point",
        "coordinates": [
          120.67397,
          24.11269
        ]
      },
      "properties": {
        "name": "iBike1.0_環河公園",
        "name_eng": "iBike1.0_Huan He Park",
        "addr": "Yonglong 6th St & Shuangwun Rd Intersection",
        "addr_cht": "永隆六街/爽文路口",
        "capacity": 20,
        "ServiceType": 1
      }
    },
    {
      "type": "Feature",
      "geometry": {
        "type": "Point",
        "coordinates": [
          120.68375,
          24.10991
        ]
      },
      "properties": {
        "name": "iBike1.0_中興大學附屬高中",
        "name_eng": "iBike1.0_The Affiliated High School of NCHU",
        "addr": "Sec. 2, Yimin Rd & Ln. 230, Sec. 2, Yimin Rd Intersection",
        "addr_cht": "益民路二段/益民路二段230巷口",
        "capacity": 24,
        "ServiceType": 1
      }
    },
    {
      "type": "Feature",
      "geometry": {
        "type": "Point",
        "coordinates": [
          120.71184,
          24.16638
        ]
      },
      "properties": {
        "name": "iBike1.0_臺中市籃球運動中心",
        "name_eng": "iBike1.0_Taichung Basketball Sports Center",
        "addr": " Jingxian 6th Rd & Jingxian S. 1st Rd Intersection",
        "addr_cht": "景賢六路/景賢南一路口",
        "capacity": 34,
        "ServiceType": 1
      }
    },
    {
      "type": "Feature",
      "geometry": {
        "type": "Point",
        "coordinates": [
          120.70236,
          24.17178
        ]
      },
      "properties": {
        "name": "iBike1.0_東光國小",
        "name_eng": "iBike1.0_Dung-Guang Elementary School",
        "addr": "Ln. 91, Sec. 1, Dongshan Rd & ly. 31, Ln. 123, Sec. 1, Dongshan Rd Intersection",
        "addr_cht": "東山路一段91巷/東山路一段123巷31弄口",
        "capacity": 20,
        "ServiceType": 1
      }
    },
    {
      "type": "Feature",
      "geometry": {
        "type": "Point",
        "coordinates": [
          120.68631,
          24.18299
        ]
      },
      "properties": {
        "name": "iBike1.0_北屯區公所",
        "name_eng": "iBike1.0_Beitun District Office",
        "addr": " Sec. 3, Chongde Rd & Sec. 1, Chongde 8th Rd Intersection",
        "addr_cht": "崇德路三段/崇德八路一段口",
        "capacity": 18,
        "ServiceType": 1
      }
    },
    {
      "type": "Feature",
      "geometry": {
        "type": "Point",
        "coordinates": [
          120.67207,
          24.18161
        ]
      },
      "properties": {
        "name": "iBike1.0_大德公園",
        "name_eng": "iBike1.0_Da De Park",
        "addr": " Pingde Rd & Ln. 1, Pingde Rd Intersection",
        "addr_cht": "平德路/平德路1巷口",
        "capacity": 14,
        "ServiceType": 1
      }
    },
    {
      "type": "Feature",
      "geometry": {
        "type": "Point",
        "coordinates": [
          120.73008,
          24.1738
        ]
      },
      "properties": {
        "name": "iBike1.0_新都生態公園",
        "name_eng": "iBike1.0_Sin Dou Ecology Park",
        "addr": " Junfu 15th Rd & Sec. 2, Xiangshun Rd Intersection",
        "addr_cht": "軍福十五路/祥順路二段口",
        "capacity": 24,
        "ServiceType": 1
      }
    },
    {
      "type": "Feature",
      "geometry": {
        "type": "Point",
        "coordinates": [
          120.62871,
          24.11578
        ]
      },
      "properties": {
        "name": "iBike1.0_楓香公園",
        "name_eng": "iBike1.0_Fong Siang Park",
        "addr": " Fengshu W. St & Fengshu S. St Intersection",
        "addr_cht": "楓樹西街/楓樹南街口",
        "capacity": 22,
        "ServiceType": 1
      }
    },
    {
      "type": "Feature",
      "geometry": {
        "type": "Point",
        "coordinates": [
          120.62915,
          24.12057
        ]
      },
      "properties": {
        "name": "iBike1.0_鎮平公園",
        "name_eng": "iBike1.0_Zhen Ping Park",
        "addr": " Ln. 366, Fengshu W. St & Sec. 1, Liming Rd Intersection",
        "addr_cht": "楓樹西街366巷/黎明路一段口",
        "capacity": 18,
        "ServiceType": 1
      }
    },
    {
      "type": "Feature",
      "geometry": {
        "type": "Point",
        "coordinates": [
          120.65326,
          24.1317
        ]
      },
      "properties": {
        "name": "iBike1.0_豐富公園",
        "name_eng": "iBike1.0_Feng Fu Park",
        "addr": " Sec. 1, Dongxing Rd & Sec. 1, Wenxin S. 5th Rd Intersection",
        "addr_cht": "東興路一段/文心南五路一段口",
        "capacity": 16,
        "ServiceType": 1
      }
    },
    {
      "type": "Feature",
      "geometry": {
        "type": "Point",
        "coordinates": [
          120.66456,
          24.12862
        ]
      },
      "properties": {
        "name": "iBike1.0_五權火車站",
        "name_eng": "iBike1.0_Wuquan Railway Station",
        "addr": " Ln. 100, Sec. 2, Jianguo N. Rd & Sec. 2, Jianguo N. Rd Intersection",
        "addr_cht": "建國北路二段100巷/建國北路二段口",
        "capacity": 26,
        "ServiceType": 1
      }
    },
    {
      "type": "Feature",
      "geometry": {
        "type": "Point",
        "coordinates": [
          120.67159,
          24.1244
        ]
      },
      "properties": {
        "name": "iBike1.0_江川公園",
        "name_eng": "iBike1.0_Jiang Chuan Park",
        "addr": " Fuxingyuan Rd & Yongdong St Intersection",
        "addr_cht": "復興園路/永東街口",
        "capacity": 20,
        "ServiceType": 1
      }
    },
    {
      "type": "Feature",
      "geometry": {
        "type": "Point",
        "coordinates": [
          120.65512,
          24.11114
        ]
      },
      "properties": {
        "name": "iBike1.0_樹義公園",
        "name_eng": "iBike1.0_Shu Yi Park",
        "addr": " Yonglong 6th St & Shuangwun Rd Intersection",
        "addr_cht": "大慶街一段257-3巷/福田三街口",
        "capacity": 24,
        "ServiceType": 1
      }
    },
    {
      "type": "Feature",
      "geometry": {
        "type": "Point",
        "coordinates": [
          120.6695,
          24.17187
        ]
      },
      "properties": {
        "name": "iBike1.0_長青公園",
        "name_eng": "iBike1.0_Chang Cing Park",
        "addr": " Beiping 2nd St & Sec. 1, Beiping Rd Intersection",
        "addr_cht": "北平二街/北平路一段口",
        "capacity": 28,
        "ServiceType": 1
      }
    },
    {
      "type": "Feature",
      "geometry": {
        "type": "Point",
        "coordinates": [
          120.6562,
          24.14338
        ]
      },
      "properties": {
        "name": "iBike1.0_大忠公園",
        "name_eng": "iBike1.0_Da Zhong Park",
        "addr": "Jingcheng 30th St  & Dazhong St Intersection",
        "addr_cht": "精誠三十街/大忠街口",
        "capacity": 16,
        "ServiceType": 1
      }
    },
    {
      "type": "Feature",
      "geometry": {
        "type": "Point",
        "coordinates": [
          120.67607,
          24.1136
        ]
      },
      "properties": {
        "name": "iBike1.0_永隆七街永隆路口",
        "name_eng": "iBike1.0_Yonglong 7th St./ Yonglong Rd.",
        "addr": " Yonglong 7th St & Yonglong Rd Intersection",
        "addr_cht": "永隆七街/永隆路口",
        "capacity": 20,
        "ServiceType": 1
      }
    },
    {
      "type": "Feature",
      "geometry": {
        "type": "Point",
        "coordinates": [
          120.68267,
          24.10028
        ]
      },
      "properties": {
        "name": "iBike1.0_大里運動公園",
        "name_eng": "iBike1.0_Dali Sports Park",
        "addr": " Sec. 1, Guoguang Rd & Dali Rd Intersection",
        "addr_cht": "國光路一段/大里路口",
        "capacity": 16,
        "ServiceType": 1
      }
    },
    {
      "type": "Feature",
      "geometry": {
        "type": "Point",
        "coordinates": [
          120.68366,
          24.10385
        ]
      },
      "properties": {
        "name": "iBike1.0_國光花市停車場",
        "name_eng": "iBike1.0_Guo Guang Flower Market Parking Lot",
        "addr": " Defang S. Rd & Defang S. 3rd St Intersection",
        "addr_cht": "德芳南路/德芳南三街口",
        "capacity": 26,
        "ServiceType": 1
      }
    },
    {
      "type": "Feature",
      "geometry": {
        "type": "Point",
        "coordinates": [
          120.68731,
          24.10251
        ]
      },
      "properties": {
        "name": "iBike1.0_德芳南路德芳南一街口",
        "name_eng": "iBike1.0_Defang S.Rd./Defang S.1st St.",
        "addr": " Defang S. Rd & Defang S. 1st St Intersection",
        "addr_cht": "德芳南路/德芳南一街口",
        "capacity": 22,
        "ServiceType": 1
      }
    },
    {
      "type": "Feature",
      "geometry": {
        "type": "Point",
        "coordinates": [
          120.62265,
          24.34222
        ]
      },
      "properties": {
        "name": "iBike1.0_大甲高中",
        "name_eng": "iBike1.0_National Dajia Senior High School",
        "addr": " Shuiyuan Rd & Sec. 1, Zhongshan Rd Intersection",
        "addr_cht": "水源路/中山路一段口",
        "capacity": 30,
        "ServiceType": 1
      }
    },
    {
      "type": "Feature",
      "geometry": {
        "type": "Point",
        "coordinates": [
          120.65258,
          24.10885
        ]
      },
      "properties": {
        "name": "iBike1.0_樹仁公園",
        "name_eng": "iBike1.0_Shu Ren Park",
        "addr": " Futian 2nd St & Shuyi Rd Intersection",
        "addr_cht": "福田二街/樹義路口",
        "capacity": 28,
        "ServiceType": 1
      }
    },
    {
      "type": "Feature",
      "geometry": {
        "type": "Point",
        "coordinates": [
          120.65652,
          24.11533
        ]
      },
      "properties": {
        "name": "iBike1.0_樹義園道",
        "name_eng": "iBike1.0_Shu Yi Parkway",
        "addr": " Gongxue N. Rd & Shuyi 2nd St Intersection",
        "addr_cht": "工學北路/樹義二街口",
        "capacity": 18,
        "ServiceType": 1
      }
    },
    {
      "type": "Feature",
      "geometry": {
        "type": "Point",
        "coordinates": [
          120.68491,
          24.12861
        ]
      },
      "properties": {
        "name": "iBike1.0_中興大學附屬高農",
        "name_eng": "iBike1.0_The Affiliated Taichung Senior Agricultural Vocational High School of NCHU",
        "addr": " Taizhong Rd & Jianzhong St Intersection",
        "addr_cht": "台中路/建中街口",
        "capacity": 26,
        "ServiceType": 1
      }
    },
    {
      "type": "Feature",
      "geometry": {
        "type": "Point",
        "coordinates": [
          120.68216,
          24.19446
        ]
      },
      "properties": {
        "name": "iBike1.0_四張犁農村公園",
        "name_eng": "iBike1.0_Sizhangli Rural Park",
        "addr": " Siping Rd & Sec. 2, Fengle Rd Intersection",
        "addr_cht": "四平路/豐樂路二段口",
        "capacity": 24,
        "ServiceType": 1
      }
    },
    {
      "type": "Feature",
      "geometry": {
        "type": "Point",
        "coordinates": [
          120.68049,
          24.1947
        ]
      },
      "properties": {
        "name": "iBike1.0_四張犁圖書館",
        "name_eng": "iBike1.0_Sizhengli Library",
        "addr": " Sec. 2, Fengle Rd & Fengle 1st St Intersection",
        "addr_cht": "豐樂路二段/豐樂一街口",
        "capacity": 18,
        "ServiceType": 1
      }
    },
    {
      "type": "Feature",
      "geometry": {
        "type": "Point",
        "coordinates": [
          120.66567,
          24.17811
        ]
      },
      "properties": {
        "name": "iBike1.0_大鵬國小",
        "name_eng": "iBike1.0_Da Peng Elementary School",
        "addr": " Dapeng Rd & Ln. 59, Dapeng Rd Intersection",
        "addr_cht": "大鵬路/大鵬路59巷口",
        "capacity": 26,
        "ServiceType": 1
      }
    },
    {
      "type": "Feature",
      "geometry": {
        "type": "Point",
        "coordinates": [
          120.62188,
          24.17754
        ]
      },
      "properties": {
        "name": "iBike1.0_協和停車場",
        "name_eng": "iBike1.0_Sie He Parking Lot",
        "addr": " Anhe W. Rd & Fuxuan Rd Intersection",
        "addr_cht": "安和西路/福玄路口",
        "capacity": 18,
        "ServiceType": 1
      }
    },
    {
      "type": "Feature",
      "geometry": {
        "type": "Point",
        "coordinates": [
          120.67967,
          24.10456
        ]
      },
      "properties": {
        "name": "iBike1.0_環保公園",
        "name_eng": "iBike1.0_Enviornment Park",
        "addr": " Sec. 2, Defang Rd & Yongda St Intersection",
        "addr_cht": "德芳路二段/永大街口",
        "capacity": 20,
        "ServiceType": 1
      }
    },
    {
      "type": "Feature",
      "geometry": {
        "type": "Point",
        "coordinates": [
          120.69557,
          24.08778
        ]
      },
      "properties": {
        "name": "iBike1.0_大里圖書館",
        "name_eng": "iBike1.0_Dali Library",
        "addr": "Sec. 1, Zhongxing Rd & Zhonghu Rd Intersection ",
        "addr_cht": "中興路一段/中湖路口",
        "capacity": 24,
        "ServiceType": 1
      }
    },
    {
      "type": "Feature",
      "geometry": {
        "type": "Point",
        "coordinates": [
          120.72839,
          24.15006
        ]
      },
      "properties": {
        "name": "iBike1.0_坪林森林公園",
        "name_eng": "iBike1.0_Pinglin Forest Park",
        "addr": " Sec. 2, Zhongshan Rd & Ln. 477, Sec. 2, Zhongshan Rd Intersection",
        "addr_cht": "中山路二段/中山路二段477巷口",
        "capacity": 20,
        "ServiceType": 1
      }
    },
    {
      "type": "Feature",
      "geometry": {
        "type": "Point",
        "coordinates": [
          120.67733,
          24.13557
        ]
      },
      "properties": {
        "name": "iBike1.0_臺中女中",
        "name_eng": "iBike1.0_National Taichung Girls' Senior High  School",
        "addr": " Sec. 1, Ziyou Rd & Kangle St Intersection",
        "addr_cht": "自由路一段/康樂街口",
        "capacity": 20,
        "ServiceType": 1
      }
    },
    {
      "type": "Feature",
      "geometry": {
        "type": "Point",
        "coordinates": [
          120.68707,
          24.10036
        ]
      },
      "properties": {
        "name": "iBike1.0_臺中市纖維工藝博物館",
        "name_eng": "iBike1.0_Museum of Fiber Art, Taichung",
        "addr": "Shengli 2nd Rd & Defang S. 1nd St  Intersection",
        "addr_cht": "勝利二路口/德芳南一街",
        "capacity": 20,
        "ServiceType": 1
      }
    },
    {
      "type": "Feature",
      "geometry": {
        "type": "Point",
        "coordinates": [
          120.66851,
          24.12469
        ]
      },
      "properties": {
        "name": "iBike1.0_南平公園",
        "name_eng": "iBike1.0_Nan Ping Park",
        "addr": " Hechang St & Fuxin St Intersection",
        "addr_cht": "和昌街/福新街口",
        "capacity": 26,
        "ServiceType": 1
      }
    },
    {
      "type": "Feature",
      "geometry": {
        "type": "Point",
        "coordinates": [
          120.63577,
          24.17692
        ]
      },
      "properties": {
        "name": "iBike1.0_西大墩公園",
        "name_eng": "iBike1.0_West Da Dun Park",
        "addr": " Fuke 1st St & Fuke 2nd Rd Intersection(NorthWest)",
        "addr_cht": "福科一街/福科二路口(西北側)",
        "capacity": 22,
        "ServiceType": 1
      }
    },
    {
      "type": "Feature",
      "geometry": {
        "type": "Point",
        "coordinates": [
          120.61381,
          24.18972
        ]
      },
      "properties": {
        "name": "iBike1.0_福科國民中學",
        "name_eng": "iBike1.0_Focus Junior High School",
        "addr": " Sec. 3, Xitun Rd & Ln. 370, Yumen Rd Intersection",
        "addr_cht": "西屯路三段/玉門路370巷口",
        "capacity": 26,
        "ServiceType": 1
      }
    },
    {
      "type": "Feature",
      "geometry": {
        "type": "Point",
        "coordinates": [
          120.63337,
          24.16592
        ]
      },
      "properties": {
        "name": "iBike1.0_潮洋環保公園",
        "name_eng": "iBike1.0_Chao Yang Environmental Park",
        "addr": "Chaogui Rd & Shizheng N. 2nd Rd Intersection",
        "addr_cht": "朝貴路/市政北二路口",
        "capacity": 26,
        "ServiceType": 1
      }
    },
    {
      "type": "Feature",
      "geometry": {
        "type": "Point",
        "coordinates": [
          120.70209,
          24.14212
        ]
      },
      "properties": {
        "name": "iBike1.0_東英停車場",
        "name_eng": "iBike1.0_Dongying Parking Lot",
        "addr": " Dongying 9th St & Yixin St Intersection",
        "addr_cht": "東英九街 / 一心街口",
        "capacity": 22,
        "ServiceType": 1
      }
    },
    {
      "type": "Feature",
      "geometry": {
        "type": "Point",
        "coordinates": [
          120.65436,
          24.13526
        ]
      },
      "properties": {
        "name": "iBike1.0_大興公園",
        "name_eng": "iBike1.0_Da Sing Park",
        "addr": " Sec. 2, Nantun Rd & Jingcheng S. Rd Intersection",
        "addr_cht": "南屯路二段/精誠南路口",
        "capacity": 16,
        "ServiceType": 1
      }
    },
    {
      "type": "Feature",
      "geometry": {
        "type": "Point",
        "coordinates": [
          120.64065,
          24.17065
        ]
      },
      "properties": {
        "name": "iBike1.0_上安公園",
        "name_eng": "iBike1.0_Shang An Park",
        "addr": "Shang’an Rd & Shangren St Intersection ",
        "addr_cht": "上安路/上仁街口",
        "capacity": 22,
        "ServiceType": 1
      }
    },
    {
      "type": "Feature",
      "geometry": {
        "type": "Point",
        "coordinates": [
          120.61962,
          24.18219
        ]
      },
      "properties": {
        "name": "iBike1.0_世斌公園",
        "name_eng": "iBike1.0_Shih Bin Park",
        "addr": "Yongfu Rd & Ln. 88, Fu’an Rd Intersection",
        "addr_cht": "永福路/福安路88巷口",
        "capacity": 16,
        "ServiceType": 1
      }
    },
    {
      "type": "Feature",
      "geometry": {
        "type": "Point",
        "coordinates": [
          120.68052,
          24.13333
        ]
      },
      "properties": {
        "name": "iBike1.0_文化部文化資產園區",
        "name_eng": "iBike1.0_Cultural Heritage Park, Ministry of Culture",
        "addr": " Sec. 3, Fuxing Rd & Minsheng Rd Intersection",
        "addr_cht": "復興路三段/民生路口",
        "capacity": 34,
        "ServiceType": 1
      }
    },
    {
      "type": "Feature",
      "geometry": {
        "type": "Point",
        "coordinates": [
          120.61691,
          24.10603
        ]
      },
      "properties": {
        "name": "iBike1.0_兒二公園",
        "name_eng": "iBike1.0_Children's 2nd Park",
        "addr": " Sec. 2, Zhongshan Rd & Xinxing Rd Intersection",
        "addr_cht": "中山路二段/新興路口",
        "capacity": 20,
        "ServiceType": 1
      }
    },
    {
      "type": "Feature",
      "geometry": {
        "type": "Point",
        "coordinates": [
          120.70141706951416,
          24.18201990115146
        ]
      },
      "properties": {
        "name": "iBike1.0_松竹捷運站",
        "name_eng": "iBike1.0_TMRT Songzhu Sta.",
        "addr": "Songzhu 2nd Rd & Beitun Rd Intersection",
        "addr_cht": "松竹路二段/北屯路口",
        "capacity": 40,
        "ServiceType": 1
      }
    },
    {
      "type": "Feature",
      "geometry": {
        "type": "Point",
        "coordinates": [
          120.68521,
          24.17922
        ]
      },
      "properties": {
        "name": "iBike1.0_三分埔公園",
        "name_eng": "iBike1.0_San Fen Pu Park",
        "addr": " Chongde 5th Rd & Hebei E. St Intersection",
        "addr_cht": "崇德五路 / 河北東街口",
        "capacity": 22,
        "ServiceType": 1
      }
    },
    {
      "type": "Feature",
      "geometry": {
        "type": "Point",
        "coordinates": [
          120.67659,
          24.1764
        ]
      },
      "properties": {
        "name": "iBike1.0_蓬勃運動中心",
        "name_eng": "iBike1.0_Pengbo Sports Center",
        "addr": "Sec. 2, Shanxi RD & And hi N. 1st ST Internation ",
        "addr_cht": "山西路二段/安順北一街口",
        "capacity": 26,
        "ServiceType": 1
      }
    },
    {
      "type": "Feature",
      "geometry": {
        "type": "Point",
        "coordinates": [
          120.72146,
          24.16264
        ]
      },
      "properties": {
        "name": "iBike1.0_太原停車場",
        "name_eng": "iBike1.0_Taiyuan Parking Lot",
        "addr": " Sec. 3, Taiyuan Rd & Sec. 1, Jianhe Rd Intersection",
        "addr_cht": "太原路三段/建和路一段路口",
        "capacity": 16,
        "ServiceType": 1
      }
    },
    {
      "type": "Feature",
      "geometry": {
        "type": "Point",
        "coordinates": [
          120.65929,
          24.16569
        ]
      },
      "properties": {
        "name": "iBike1.0_大仁公園",
        "name_eng": "iBike1.0_Da Ren Park",
        "addr": " Sec. 1, Gansu Rd & Ganzhou 6th St Intersection",
        "addr_cht": "甘肅路一段/甘州六街口",
        "capacity": 20,
        "ServiceType": 1
      }
    },
    {
      "type": "Feature",
      "geometry": {
        "type": "Point",
        "coordinates": [
          120.69138,
          24.08933
        ]
      },
      "properties": {
        "name": "iBike1.0_長春兒童公園",
        "name_eng": "iBike1.0_Chang Chun Children's Park",
        "addr": " Ln. 78, Changchun Rd & Aly. 31, Ln. 78, Changchun Rd Intersection",
        "addr_cht": "長春路78巷/長春路78巷31弄口",
        "capacity": 20,
        "ServiceType": 1
      }
    },
    {
      "type": "Feature",
      "geometry": {
        "type": "Point",
        "coordinates": [
          120.60975,
          24.18425
        ]
      },
      "properties": {
        "name": "iBike1.0_臺灣大道玉門路口",
        "name_eng": "iBike1.0_Taiwan Blvd. / Yumen Rd.",
        "addr": "Sec. 4, Taiwan Blvd & Yumen Rd Intersection",
        "addr_cht": "臺灣大道四段/玉門路口",
        "capacity": 30,
        "ServiceType": 1
      }
    },
    {
      "type": "Feature",
      "geometry": {
        "type": "Point",
        "coordinates": [
          120.61472,
          24.19061
        ]
      },
      "properties": {
        "name": "iBike1.0_國安一號公園",
        "name_eng": "iBike1.0_Guoan 1st Park",
        "addr": " Guo’an 1st Rd & Fulin Rd Intersection ",
        "addr_cht": "國安一路/福林路口",
        "capacity": 16,
        "ServiceType": 1
      }
    },
    {
      "type": "Feature",
      "geometry": {
        "type": "Point",
        "coordinates": [
          120.69877,
          24.10441
        ]
      },
      "properties": {
        "name": "iBike1.0_立新國中",
        "name_eng": "iBike1.0_Li Shin Junior High School",
        "addr": " Lixin 2nd St & Zili Rd Intersection",
        "addr_cht": "立新二街/自立路口",
        "capacity": 16,
        "ServiceType": 1
      }
    },
    {
      "type": "Feature",
      "geometry": {
        "type": "Point",
        "coordinates": [
          120.66929,
          24.13239
        ]
      },
      "properties": {
        "name": "iBike1.0_公館公園",
        "name_eng": "iBike1.0_Gong Guan Park",
        "addr": " Sec. 1, Sanmin Rd & Sec. 1, Ziyou Rd Intersection",
        "addr_cht": "三民路一段/自由路一段口",
        "capacity": 30,
        "ServiceType": 1
      }
    },
    {
      "type": "Feature",
      "geometry": {
        "type": "Point",
        "coordinates": [
          120.67852,
          24.11513
        ]
      },
      "properties": {
        "name": "iBike1.0_大明兒童公園",
        "name_eng": "iBike1.0_Da Min Children's Park",
        "addr": " Ln. 366, Daming Rd & Daming Rd Intersection",
        "addr_cht": "大明路366巷/大明路口",
        "capacity": 30,
        "ServiceType": 1
      }
    },
    {
      "type": "Feature",
      "geometry": {
        "type": "Point",
        "coordinates": [
          120.69476,
          24.09988
        ]
      },
      "properties": {
        "name": "iBike1.0_十九甲健康公園",
        "name_eng": "iBike1.0_Shijiujia Jiankang Park",
        "addr": "Liyuan Rd  & Jiayuan St Intersection",
        "addr_cht": "立元路/甲園街口",
        "capacity": 20,
        "ServiceType": 1
      }
    },
    {
      "type": "Feature",
      "geometry": {
        "type": "Point",
        "coordinates": [
          120.65786,
          24.13652
        ]
      },
      "properties": {
        "name": "iBike1.0_土庫公園",
        "name_eng": "iBike1.0_Tu Ku Park",
        "addr": " Wuquan 5th St & Ln. 136, Wuquan W. 6th St Intersection",
        "addr_cht": "五權五街/五權西六街136巷口",
        "capacity": 14,
        "ServiceType": 1
      }
    },
    {
      "type": "Feature",
      "geometry": {
        "type": "Point",
        "coordinates": [
          120.64998,
          24.13593
        ]
      },
      "properties": {
        "name": "iBike1.0_正心兒童公園",
        "name_eng": "iBike1.0_Jheng Sin Children's Park",
        "addr": "Dadun S. Rd & Wenxin S. 2nd Rd  Intersection ",
        "addr_cht": "大墩南路/文心南二路口",
        "capacity": 24,
        "ServiceType": 1
      }
    },
    {
      "type": "Feature",
      "geometry": {
        "type": "Point",
        "coordinates": [
          120.63961,
          24.13354
        ]
      },
      "properties": {
        "name": "iBike1.0_萬和國中",
        "name_eng": "iBike1.0_Wan He Junior High School",
        "addr": " Wenxin S. 3rd Rd & Feng’an St Intersection",
        "addr_cht": "文心南三路/豐安街口",
        "capacity": 36,
        "ServiceType": 1
      }
    },
    {
      "type": "Feature",
      "geometry": {
        "type": "Point",
        "coordinates": [
          120.67634,
          24.13175
        ]
      },
      "properties": {
        "name": "iBike1.0_復興停車場",
        "name_eng": "iBike1.0_Fuxing Parking Lot",
        "addr": " Sec. 3, Fuxing Rd & Guoguang Rd Intersection",
        "addr_cht": "復興路三段/國光路口",
        "capacity": 18,
        "ServiceType": 1
      }
    },
    {
      "type": "Feature",
      "geometry": {
        "type": "Point",
        "coordinates": [
          120.70752,
          24.13885
        ]
      },
      "properties": {
        "name": "iBike1.0_樂利公園",
        "name_eng": "iBike1.0_Leli Park",
        "addr": " Shijia E. Rd & Dongying 6th St Intersection",
        "addr_cht": "十甲東路/東英六街口",
        "capacity": 20,
        "ServiceType": 1
      }
    },
    {
      "type": "Feature",
      "geometry": {
        "type": "Point",
        "coordinates": [
          120.70959,
          24.1463
        ]
      },
      "properties": {
        "name": "iBike1.0_進業公園",
        "name_eng": "iBike1.0_Jinye Park",
        "addr": " Shijia E. Rd & Dongying 15th St Intersection",
        "addr_cht": "十甲東路/東英十五街口",
        "capacity": 28,
        "ServiceType": 1
      }
    },
    {
      "type": "Feature",
      "geometry": {
        "type": "Point",
        "coordinates": [
          120.69985,
          24.07319
        ]
      },
      "properties": {
        "name": "iBike1.0_霧峰農工",
        "name_eng": "iBike1.0_Wufeng Agricultural And Industrial High School",
        "addr": " No.1222, Zhongzheng Rd",
        "addr_cht": "中正路1222號前",
        "capacity": 30,
        "ServiceType": 1
      }
    },
    {
      "type": "Feature",
      "geometry": {
        "type": "Point",
        "coordinates": [
          120.6371,
          24.10924
        ]
      },
      "properties": {
        "name": "iBike1.0_烏日圖書館",
        "name_eng": "iBike1.0_Wuri Library",
        "addr": "Changchun St & Ln. 317, Changchun St  Intersection ",
        "addr_cht": "長春街/長春街317巷口",
        "capacity": 16,
        "ServiceType": 1
      }
    },
    {
      "type": "Feature",
      "geometry": {
        "type": "Point",
        "coordinates": [
          120.70012,
          24.0615
        ]
      },
      "properties": {
        "name": "iBike1.0_霧峰區公所",
        "name_eng": "iBike1.0_Wufeng District Office",
        "addr": "Datong Rd  & Minsheng Rd  Intersection",
        "addr_cht": "大同路/民生路口",
        "capacity": 26,
        "ServiceType": 1
      }
    },
    {
      "type": "Feature",
      "geometry": {
        "type": "Point",
        "coordinates": [
          120.71982,
          24.182
        ]
      },
      "properties": {
        "name": "iBike1.0_軍功公園",
        "name_eng": "iBike1.0_Jungong Park",
        "addr": "Sec. 1, Songzhu Rd & Sec. 2, Jungong Rd Intersection",
        "addr_cht": "松竹路一段/軍功路二段口",
        "capacity": 18,
        "ServiceType": 1
      }
    },
    {
      "type": "Feature",
      "geometry": {
        "type": "Point",
        "coordinates": [
          120.72337,
          24.17032
        ]
      },
      "properties": {
        "name": "iBike1.0_和福公園",
        "name_eng": "iBike1.0_He Fu Park",
        "addr": " Junfu 10th Rd & Hefu Rd Intersection",
        "addr_cht": "軍福十路/和福路口",
        "capacity": 24,
        "ServiceType": 1
      }
    },
    {
      "type": "Feature",
      "geometry": {
        "type": "Point",
        "coordinates": [
          120.69097,
          24.15778
        ]
      },
      "properties": {
        "name": "iBike1.0_雙十育樂街口",
        "name_eng": "iBike1.0_Shuangshi Rd. / Yule St.",
        "addr": "Sec. 2, Shuangshi Rd  & Yule St  Intersection",
        "addr_cht": "雙十路二段/育樂街口",
        "capacity": 24,
        "ServiceType": 1
      }
    },
    {
      "type": "Feature",
      "geometry": {
        "type": "Point",
        "coordinates": [
          120.62835,
          24.10188
        ]
      },
      "properties": {
        "name": "iBike1.0_自治公園",
        "name_eng": "iBike1.0_Zi Zhi Park",
        "addr": " Gongyuan Rd & Wuguang Rd Intersection",
        "addr_cht": "公園路/五光路口",
        "capacity": 20,
        "ServiceType": 1
      }
    },
    {
      "type": "Feature",
      "geometry": {
        "type": "Point",
        "coordinates": [
          120.67118,
          24.16808
        ]
      },
      "properties": {
        "name": "iBike1.0_曉明公園",
        "name_eng": "iBike1.0_Siaoming Park",
        "addr": " Shanxi E. 5th St & Hanyang W. St Intersection",
        "addr_cht": "陜西東五街/漢陽西街口",
        "capacity": 16,
        "ServiceType": 1
      }
    },
    {
      "type": "Feature",
      "geometry": {
        "type": "Point",
        "coordinates": [
          120.66372,
          24.16623
        ]
      },
      "properties": {
        "name": "iBike1.0_三信公園",
        "name_eng": "iBike1.0_Sanxin Park",
        "addr": " Sec. 2, Hankou Rd & Ninghan 3rd St Intersection",
        "addr_cht": "漢口路二段/寧漢三街口",
        "capacity": 16,
        "ServiceType": 1
      }
    },
    {
      "type": "Feature",
      "geometry": {
        "type": "Point",
        "coordinates": [
          120.66824,
          24.16906
        ]
      },
      "properties": {
        "name": "iBike1.0_武昌公園",
        "name_eng": "iBike1.0_Wuchang Park",
        "addr": " Shanxi Rd & Wuchang Rd Intersection",
        "addr_cht": "陜西路/武昌路口",
        "capacity": 24,
        "ServiceType": 1
      }
    },
    {
      "type": "Feature",
      "geometry": {
        "type": "Point",
        "coordinates": [
          120.69517,
          24.11141
        ]
      },
      "properties": {
        "name": "iBike1.0_內新國小",
        "name_eng": "iBike1.0_Ne-Shin Elementary School",
        "addr": "Rixin Rd & Sec. 2, Xinren Rd Intersection ",
        "addr_cht": "日新路/新仁路二段口",
        "capacity": 18,
        "ServiceType": 1
      }
    },
    {
      "type": "Feature",
      "geometry": {
        "type": "Point",
        "coordinates": [
          120.69675,
          24.17392
        ]
      },
      "properties": {
        "name": "iBike1.0_豐田公園",
        "name_eng": "iBike1.0_Fengtian Park",
        "addr": " Sec. 1, Liaoning Rd & Sec. 3, Dalian Rd Intersection ",
        "addr_cht": "遼寧路一段/大連路三段口",
        "capacity": 32,
        "ServiceType": 1
      }
    },
    {
      "type": "Feature",
      "geometry": {
        "type": "Point",
        "coordinates": [
          120.73184,
          24.17692
        ]
      },
      "properties": {
        "name": "iBike1.0_經補庫停車場",
        "name_eng": "iBike1.0_Jing Bu Ku Parking Lot",
        "addr": "No.381-42, Sec. 1, Dongshan Rd",
        "addr_cht": "東山路一段381-42號對面",
        "capacity": 18,
        "ServiceType": 1
      }
    },
    {
      "type": "Feature",
      "geometry": {
        "type": "Point",
        "coordinates": [
          120.64696,
          24.13212
        ]
      },
      "properties": {
        "name": "iBike1.0_南苑公園",
        "name_eng": "iBike1.0_Nanyuan Park",
        "addr": " Wenxin S. Rd & Sec. 1, Wenxin S. 5th Rd Intersection",
        "addr_cht": "文心南路/文心南五路一段口",
        "capacity": 44,
        "ServiceType": 1
      }
    },
    {
      "type": "Feature",
      "geometry": {
        "type": "Point",
        "coordinates": [
          120.7212,
          24.24698
        ]
      },
      "properties": {
        "name": "iBike1.0_陽明大樓",
        "name_eng": "iBike1.0_Taichung City Hall-Yangming Building",
        "addr": "Yangming St & Ln. 66, Yangming St Intersection",
        "addr_cht": "陽明街/陽明街66巷口",
        "capacity": 20,
        "ServiceType": 1
      }
    },
    {
      "type": "Feature",
      "geometry": {
        "type": "Point",
        "coordinates": [
          120.63903,
          24.13768
        ]
      },
      "properties": {
        "name": "iBike1.0_萬和宮",
        "name_eng": "iBike1.0_Wan He Temple",
        "addr": "Sec. 1, Wanhe Rd & Wenchang St Intersection",
        "addr_cht": "萬和路一段/文昌街口",
        "capacity": 24,
        "ServiceType": 1
      }
    },
    {
      "type": "Feature",
      "geometry": {
        "type": "Point",
        "coordinates": [
          120.68614,
          24.19044
        ]
      },
      "properties": {
        "name": "iBike1.0_仁美公園",
        "name_eng": "iBike1.0_Ren Mei Park",
        "addr": " Sec. 3, Chongde Rd & Chongde 12th Rd Intersection",
        "addr_cht": "崇德路三段/崇德十二路口",
        "capacity": 26,
        "ServiceType": 1
      }
    },
    {
      "type": "Feature",
      "geometry": {
        "type": "Point",
        "coordinates": [
          120.6766,
          24.16158
        ]
      },
      "properties": {
        "name": "iBike1.0_梅川園道",
        "name_eng": "iBike1.0_Meichuan Parkway",
        "addr": "\"Sec. 3, Meichuan E. Rd  & Ln. 127, Shangde St Intersection\"",
        "addr_cht": "梅川東路三段/尚德街127巷口",
        "capacity": 16,
        "ServiceType": 1
      }
    },
    {
      "type": "Feature",
      "geometry": {
        "type": "Point",
        "coordinates": [
          120.7207,
          24.12079
        ]
      },
      "properties": {
        "name": "iBike1.0_中平公園",
        "name_eng": "iBike1.0_Zhongping Park",
        "addr": "Zhongping 9th St & Ln. 176, Taiping Rd Intersection",
        "addr_cht": "中平九街/太平路176巷口",
        "capacity": 24,
        "ServiceType": 1
      }
    },
    {
      "type": "Feature",
      "geometry": {
        "type": "Point",
        "coordinates": [
          120.70916,
          24.14082
        ]
      },
      "properties": {
        "name": "iBike1.0_旱溪停車場",
        "name_eng": "iBike1.0_Han Xi Parking Lot",
        "addr": " Hanxi St & Dexing 1st St Intersection",
        "addr_cht": "旱溪街/德興一街口",
        "capacity": 24,
        "ServiceType": 1
      }
    },
    {
      "type": "Feature",
      "geometry": {
        "type": "Point",
        "coordinates": [
          120.67669,
          24.1165
        ]
      },
      "properties": {
        "name": "iBike1.0_國光公園(二二八廣場)",
        "name_eng": "iBike1.0_Guoguang Park (228 Plaza)",
        "addr": "Xingda S. St  & Yonglong Rd Intersection",
        "addr_cht": "興大南街/永隆街口",
        "capacity": 26,
        "ServiceType": 1
      }
    },
    {
      "type": "Feature",
      "geometry": {
        "type": "Point",
        "coordinates": [
          120.68178,
          24.1732
        ]
      },
      "properties": {
        "name": "iBike1.0_文心國小",
        "name_eng": "iBike1.0_Wunsin Elementary School",
        "addr": "Sec. 2, Suiyuan Rd & Sec. 4, Wenxin Rd Intersection ",
        "addr_cht": "綏遠路二段/文心路四段口",
        "capacity": 24,
        "ServiceType": 1
      }
    },
    {
      "type": "Feature",
      "geometry": {
        "type": "Point",
        "coordinates": [
          120.71317,
          24.26208
        ]
      },
      "properties": {
        "name": "iBike1.0_消防公園",
        "name_eng": "iBike1.0_Fire Park",
        "addr": "Renzhou St & Sec. 7, Fengyuan Blvd Intersection",
        "addr_cht": "仁洲街/豐原大道七段口",
        "capacity": 18,
        "ServiceType": 1
      }
    },
    {
      "type": "Feature",
      "geometry": {
        "type": "Point",
        "coordinates": [
          120.67473,
          24.1026
        ]
      },
      "properties": {
        "name": "iBike1.0_進士公園",
        "name_eng": "iBike1.0_Jìnshì Park",
        "addr": "Shuangwen Rd & Sec. 3, Defang Rd Intersection",
        "addr_cht": "爽文路/德芳路三段口",
        "capacity": 16,
        "ServiceType": 1
      }
    },
    {
      "type": "Feature",
      "geometry": {
        "type": "Point",
        "coordinates": [
          120.63052,
          24.15187
        ]
      },
      "properties": {
        "name": "iBike1.0_黎光公園",
        "name_eng": "iBike1.0_Liguang Park",
        "addr": "Gancheng St & Huaide St Intersection ",
        "addr_cht": "干城街/懷德街口",
        "capacity": 18,
        "ServiceType": 1
      }
    },
    {
      "type": "Feature",
      "geometry": {
        "type": "Point",
        "coordinates": [
          120.6122,
          24.14725
        ]
      },
      "properties": {
        "name": "iBike1.0_保安公園",
        "name_eng": "iBike1.0_Baoan Park",
        "addr": "Wenshan 5th St  &  Bao’an 5th St Intersection ",
        "addr_cht": "文山五街/保安五街口",
        "capacity": 36,
        "ServiceType": 1
      }
    },
    {
      "type": "Feature",
      "geometry": {
        "type": "Point",
        "coordinates": [
          120.71103,
          24.17818
        ]
      },
      "properties": {
        "name": "iBike1.0_景美公園",
        "name_eng": "iBike1.0_Jingmei Park",
        "addr": "Sec. 3, Hanxi E. Rd & Junfu 18th Rd Intersection ",
        "addr_cht": "旱溪東路三段/軍福十八路口",
        "capacity": 40,
        "ServiceType": 1
      }
    },
    {
      "type": "Feature",
      "geometry": {
        "type": "Point",
        "coordinates": [
          120.5742,
          24.26851
        ]
      },
      "properties": {
        "name": "iBike1.0_清水牛罵頭停車場",
        "name_eng": "iBike1.0_Qingshui Niumatou Parking Lot",
        "addr": "Guanghua Rd & Ln. 137, Guanghua Rd Intersection",
        "addr_cht": "光華路/光華路137巷口",
        "capacity": 20,
        "ServiceType": 1
      }
    },
    {
      "type": "Feature",
      "geometry": {
        "type": "Point",
        "coordinates": [
          120.71971,
          24.26123
        ]
      },
      "properties": {
        "name": "iBike1.0_豐原國中",
        "name_eng": "iBike1.0_Feng Yuan Junior High School",
        "addr": "Sec. 1, Sanfeng Rd & Fengbei St Intersection",
        "addr_cht": "三豐路一段/豐北街口",
        "capacity": 26,
        "ServiceType": 1
      }
    },
    {
      "type": "Feature",
      "geometry": {
        "type": "Point",
        "coordinates": [
          120.61049,
          24.14051
        ]
      },
      "properties": {
        "name": "iBike1.0_春社公園",
        "name_eng": "iBike1.0_Chunshe Park",
        "addr": "Yongchun Rd  & Yongchun N. Rd Intersection",
        "addr_cht": "永春路/永春北路口",
        "capacity": 36,
        "ServiceType": 1
      }
    },
    {
      "type": "Feature",
      "geometry": {
        "type": "Point",
        "coordinates": [
          120.66225,
          24.19443
        ]
      },
      "properties": {
        "name": "iBike1.0_新興國小",
        "name_eng": "iBike1.0_Xin Xing Elementary School ",
        "addr": "Xinxing Rd & Ln. 7, Tongrong Rd  Intersection",
        "addr_cht": "新興路/同榮路7巷口",
        "capacity": 18,
        "ServiceType": 1
      }
    },
    {
      "type": "Feature",
      "geometry": {
        "type": "Point",
        "coordinates": [
          120.71827,
          24.24243
        ]
      },
      "properties": {
        "name": "iBike1.0_豐原區公所",
        "name_eng": "iBike1.0_Fengyuan District Office",
        "addr": "Shizheng Rd & Yuren Rd  Intersection",
        "addr_cht": "市政路/育仁路口",
        "capacity": 22,
        "ServiceType": 1
      }
    },
    {
      "type": "Feature",
      "geometry": {
        "type": "Point",
        "coordinates": [
          120.72528,
          24.24111
        ]
      },
      "properties": {
        "name": "iBike1.0_南陽公園",
        "name_eng": "iBike1.0_Nanyang Park",
        "addr": "Yongkang Rd  & Ln. 211, Yongkang Rd Intersection",
        "addr_cht": "永康路/永康路211巷口",
        "capacity": 24,
        "ServiceType": 1
      }
    },
    {
      "type": "Feature",
      "geometry": {
        "type": "Point",
        "coordinates": [
          120.65741,
          24.13259
        ]
      },
      "properties": {
        "name": "iBike1.0_崇倫國中",
        "name_eng": "iBike1.0_Chung-Lun Junior High School",
        "addr": "Zhongming S. Rd  & Sec. 1, Nantun Rd Intersection(South Side Chung-Lun Park )",
        "addr_cht": "忠明南路/ 南屯路一段口(崇倫公園南側入口處)",
        "capacity": 24,
        "ServiceType": 1
      }
    },
    {
      "type": "Feature",
      "geometry": {
        "type": "Point",
        "coordinates": [
          120.69332,
          24.15525
        ]
      },
      "properties": {
        "name": "iBike1.0_進化廣場",
        "name_eng": "iBike1.0_Jinhua Square",
        "addr": "Xingjin Rd / Yuxing St Intersection",
        "addr_cht": "興進路/育興街口",
        "capacity": 22,
        "ServiceType": 1
      }
    },
    {
      "type": "Feature",
      "geometry": {
        "type": "Point",
        "coordinates": [
          120.69363,
          24.08492
        ]
      },
      "properties": {
        "name": "iBike1.0_青年公園",
        "name_eng": "iBike1.0_Youth Park",
        "addr": "Gongyuan St & Ln. 421, Gongyuan St  Intersection",
        "addr_cht": "公園街/公園街421巷口",
        "capacity": 18,
        "ServiceType": 1
      }
    },
    {
      "type": "Feature",
      "geometry": {
        "type": "Point",
        "coordinates": [
          120.61377,
          24.18361
        ]
      },
      "properties": {
        "name": "iBike1.0_臺灣大道福林路口",
        "name_eng": "iBike1.0_Taiwan Blvd. / Fulin Rd.",
        "addr": "Sec. 4, Taiwan Blvd & Fulin Rd Intersection",
        "addr_cht": "臺灣大道四段/福林路口",
        "capacity": 12,
        "ServiceType": 1
      }
    },
    {
      "type": "Feature",
      "geometry": {
        "type": "Point",
        "coordinates": [
          120.70703,
          24.15943
        ]
      },
      "properties": {
        "name": "iBike1.0_新光國小",
        "name_eng": "iBike1.0_Shin Kang Elementary School",
        "addr": "Xinxing Rd & Xinfu Rd Intersection",
        "addr_cht": "新興路/新福路口",
        "capacity": 36,
        "ServiceType": 1
      }
    },
    {
      "type": "Feature",
      "geometry": {
        "type": "Point",
        "coordinates": [
          120.72069,
          24.15934
        ]
      },
      "properties": {
        "name": "iBike1.0_廍興公園",
        "name_eng": "iBike1.0_Busing Park",
        "addr": "Shuxiao Rd & Taishun Rd Intersection",
        "addr_cht": "樹孝路/太順路口",
        "capacity": 20,
        "ServiceType": 1
      }
    },
    {
      "type": "Feature",
      "geometry": {
        "type": "Point",
        "coordinates": [
          120.69429,
          24.14607
        ]
      },
      "properties": {
        "name": "iBike1.0_進德國小",
        "name_eng": "iBike1.0_Jin De Elementary School",
        "addr": "Jinhua Rd & Fuming St Intersection",
        "addr_cht": "進化路/福明街口",
        "capacity": 16,
        "ServiceType": 1
      }
    },
    {
      "type": "Feature",
      "geometry": {
        "type": "Point",
        "coordinates": [
          120.70494,
          24.21325
        ]
      },
      "properties": {
        "name": "iBike1.0_潭子國小",
        "name_eng": "iBike1.0_Tanzi Elementary School",
        "addr": "Ln. 391, Sec. 2, Zhongshan Rd & Sec. 2, Zhongshan Rd Intersection",
        "addr_cht": "中山路二段391巷/中山路二段口",
        "capacity": 38,
        "ServiceType": 1
      }
    },
    {
      "type": "Feature",
      "geometry": {
        "type": "Point",
        "coordinates": [
          120.69046,
          24.18041
        ]
      },
      "properties": {
        "name": "iBike1.0_松竹國小",
        "name_eng": "iBike1.0_Song Jhu Elementary School",
        "addr": "Sec. 1, Chongde 6th Rd & Ln. 4, Sec. 2, Changping Rd Intersection",
        "addr_cht": "崇德六路一段/昌平路二段4巷口",
        "capacity": 36,
        "ServiceType": 1
      }
    },
    {
      "type": "Feature",
      "geometry": {
        "type": "Point",
        "coordinates": [
          120.66228,
          24.18259
        ]
      },
      "properties": {
        "name": "iBike1.0_老樹公園",
        "name_eng": "iBike1.0_Laoshu Park",
        "addr": "Jingmao 1st Rd & Chenping Rd Intersection",
        "addr_cht": "經貿一路/順平路口",
        "capacity": 18,
        "ServiceType": 1
      }
    },
    {
      "type": "Feature",
      "geometry": {
        "type": "Point",
        "coordinates": [
          120.66988,
          24.12096
        ]
      },
      "properties": {
        "name": "iBike1.0_健康公園附設停車場",
        "name_eng": "iBike1.0_JianKang Park Parking Lot",
        "addr": "Wuquan S. Rd & Ln. 380, Wuquan S. Rd Intersection(North West)",
        "addr_cht": "五權南路/五權南路380巷(西北側)",
        "capacity": 16,
        "ServiceType": 1
      }
    },
    {
      "type": "Feature",
      "geometry": {
        "type": "Point",
        "coordinates": [
          120.55791,
          24.26935
        ]
      },
      "properties": {
        "name": "iBike1.0_臺中市港區藝術中心",
        "name_eng": "iBike1.0_Taichung City Seaport Art Center",
        "addr": " Zhenzheng Rd & Zhongzhen Rd Intersection",
        "addr_cht": "鎮政路/忠貞路口",
        "capacity": 24,
        "ServiceType": 1
      }
    },
    {
      "type": "Feature",
      "geometry": {
        "type": "Point",
        "coordinates": [
          120.62355,
          24.10461
        ]
      },
      "properties": {
        "name": "iBike1.0_烏日區公所",
        "name_eng": "iBike1.0_Wuri District Office",
        "addr": "Xinxing Rd & Guangri Rd Intersection",
        "addr_cht": "新興路/光日路口",
        "capacity": 10,
        "ServiceType": 1
      }
    },
    {
      "type": "Feature",
      "geometry": {
        "type": "Point",
        "coordinates": [
          120.55876,
          24.27824
        ]
      },
      "properties": {
        "name": "iBike1.0_清水運動場",
        "name_eng": "iBike1.0_Qingshui Gymnasium",
        "addr": "Wuquan Rd & Wuquan 2st St Intersection",
        "addr_cht": "五權路/五權二街口",
        "capacity": 18,
        "ServiceType": 1
      }
    },
    {
      "type": "Feature",
      "geometry": {
        "type": "Point",
        "coordinates": [
          120.71896,
          24.17294
        ]
      },
      "properties": {
        "name": "iBike1.0_軍功國小",
        "name_eng": "iBike1.0_Jyun Gong Elementary School",
        "addr": "Sec. 1, Jungong Rd  & Junfu 13th Rd Intersection ",
        "addr_cht": "軍功路一段/軍福十三路口",
        "capacity": 16,
        "ServiceType": 1
      }
    },
    {
      "type": "Feature",
      "geometry": {
        "type": "Point",
        "coordinates": [
          120.64454,
          24.13467
        ]
      },
      "properties": {
        "name": "iBike1.0_南屯區公所",
        "name_eng": "iBike1.0_Nantun District Office",
        "addr": "Yongchun E. Rd & Ln. 515, Yongchun E. Rd Intersection",
        "addr_cht": "永春東路/永春東路515巷",
        "capacity": 20,
        "ServiceType": 1
      }
    },
    {
      "type": "Feature",
      "geometry": {
        "type": "Point",
        "coordinates": [
          120.70205,
          24.14402
        ]
      },
      "properties": {
        "name": "iBike1.0_長福公園",
        "name_eng": "iBike1.0_Changfu Park",
        "addr": "Changfu Rd / Sec. 1, Hanxi E. Rd Intersection",
        "addr_cht": "長福路/旱溪東路一段口",
        "capacity": 20,
        "ServiceType": 1
      }
    },
    {
      "type": "Feature",
      "geometry": {
        "type": "Point",
        "coordinates": [
          120.70539,
          24.21707
        ]
      },
      "properties": {
        "name": "iBike1.0_臺中加工出口區",
        "name_eng": "iBike1.0_Taichung Export Processing Zone ",
        "addr": "Sec. 2, Zhongshan Rd & Nanhuan Rd Intersection",
        "addr_cht": "中山路二段/南環路口",
        "capacity": 22,
        "ServiceType": 1
      }
    },
    {
      "type": "Feature",
      "geometry": {
        "type": "Point",
        "coordinates": [
          120.69742,
          24.05584
        ]
      },
      "properties": {
        "name": "iBike1.0_立法院中部辦公室",
        "name_eng": "iBike1.0_Central Region Office, The Legislative Yuan",
        "addr": "Zhongzheng Rd & Lansheng St Intersection",
        "addr_cht": "中正路/蘭生街口",
        "capacity": 22,
        "ServiceType": 1
      }
    },
    {
      "type": "Feature",
      "geometry": {
        "type": "Point",
        "coordinates": [
          120.64403,
          24.15805
        ]
      },
      "properties": {
        "name": "iBike1.0_臺中市議會",
        "name_eng": "iBike1.0_Taichung City Council",
        "addr": "Shizheng N. 1st Rd & Huiwen Rd Intersection",
        "addr_cht": "市政北一路/惠文路口",
        "capacity": 18,
        "ServiceType": 1
      }
    },
    {
      "type": "Feature",
      "geometry": {
        "type": "Point",
        "coordinates": [
          120.65708,
          24.13977
        ]
      },
      "properties": {
        "name": "iBike1.0_五權西忠明南路口",
        "name_eng": "iBike1.0_Wuquan W./ Zhongming S.",
        "addr": "Sec. 1, Wuquan W. Rd & Zhongming S. Rd Intersection",
        "addr_cht": "五權西路一段/忠明南路口",
        "capacity": 14,
        "ServiceType": 1
      }
    },
    {
      "type": "Feature",
      "geometry": {
        "type": "Point",
        "coordinates": [
          120.66287,
          24.13508
        ]
      },
      "properties": {
        "name": "iBike1.0_美術館園道",
        "name_eng": "iBike1.0_Art Museum Parkway",
        "addr": "Wuquan 7th St & Wuquan W. 4th St Intersection",
        "addr_cht": "五權七街/五權西四街口",
        "capacity": 24,
        "ServiceType": 1
      }
    },
    {
      "type": "Feature",
      "geometry": {
        "type": "Point",
        "coordinates": [
          120.62334,
          24.10829
        ]
      },
      "properties": {
        "name": "iBike1.0_烏日國小",
        "name_eng": "iBike1.0_Wurih Elementary School",
        "addr": "Pingdeng St & Jingxue St Intersection",
        "addr_cht": "平等路/憬學街口",
        "capacity": 26,
        "ServiceType": 1
      }
    },
    {
      "type": "Feature",
      "geometry": {
        "type": "Point",
        "coordinates": [
          120.62702,
          24.34069
        ]
      },
      "properties": {
        "name": "iBike1.0_長青活動中心",
        "name_eng": "iBike1.0_ Chang Cing Activity Center",
        "addr": "Shuiyuan Rd & Jiadong Rd Intersection",
        "addr_cht": "水源路/甲東路口",
        "capacity": 22,
        "ServiceType": 1
      }
    },
    {
      "type": "Feature",
      "geometry": {
        "type": "Point",
        "coordinates": [
          120.62419,
          24.34761
        ]
      },
      "properties": {
        "name": "iBike1.0_文昌國小",
        "name_eng": "iBike1.0_Wenchang Elementary School",
        "addr": "Yude Rd & Minsheng Rd Intersection",
        "addr_cht": "育德路/民生路口",
        "capacity": 24,
        "ServiceType": 1
      }
    },
    {
      "type": "Feature",
      "geometry": {
        "type": "Point",
        "coordinates": [
          120.61746,
          24.34415
        ]
      },
      "properties": {
        "name": "iBike1.0_順天國小",
        "name_eng": "iBike1.0_Shuen Tian Elementary School",
        "addr": "Jingguo Rd & Xinmei St Intersection",
        "addr_cht": "經國路/新美街口",
        "capacity": 26,
        "ServiceType": 1
      }
    },
    {
      "type": "Feature",
      "geometry": {
        "type": "Point",
        "coordinates": [
          120.642,
          24.18234
        ]
      },
      "properties": {
        "name": "iBike1.0_文修公園",
        "name_eng": "iBike1.0_Wen Xiu Park",
        "addr": "Fuxing Rd & Liemei St Intersection",
        "addr_cht": "福星路/烈美街口",
        "capacity": 22,
        "ServiceType": 1
      }
    },
    {
      "type": "Feature",
      "geometry": {
        "type": "Point",
        "coordinates": [
          120.69081,
          24.16416
        ]
      },
      "properties": {
        "name": "iBike1.0_北屯國小",
        "name_eng": "iBike1.0_Bei Tun Elementary School",
        "addr": "Guoxiao Ln & Beixing St Intersection",
        "addr_cht": "國校巷/北興街口",
        "capacity": 18,
        "ServiceType": 1
      }
    },
    {
      "type": "Feature",
      "geometry": {
        "type": "Point",
        "coordinates": [
          120.64451,
          24.16931
        ]
      },
      "properties": {
        "name": "iBike1.0_上德公園",
        "name_eng": "iBike1.0_Shang De Park",
        "addr": "Shang De Park",
        "addr_cht": "智惠街/上石路口",
        "capacity": 16,
        "ServiceType": 1
      }
    },
    {
      "type": "Feature",
      "geometry": {
        "type": "Point",
        "coordinates": [
          120.73374,
          24.1566
        ]
      },
      "properties": {
        "name": "iBike1.0_屯區藝文中心",
        "name_eng": "iBike1.0_Taichung City Tun District Art Center",
        "addr": "Chang’an E. Rd & Chang’an Rd Intersection",
        "addr_cht": "長安東路/長安路口",
        "capacity": 20,
        "ServiceType": 1
      }
    },
    {
      "type": "Feature",
      "geometry": {
        "type": "Point",
        "coordinates": [
          120.68673,
          24.10674
        ]
      },
      "properties": {
        "name": "iBike1.0_益民國小",
        "name_eng": "iBike1.0_Yi-Min Elementary School",
        "addr": "Ln. 171, Sec. 2 & Ln. 81, Sec. 2, Yimin Rd Intersection ",
        "addr_cht": "益民路二段/益民路二段81巷口",
        "capacity": 18,
        "ServiceType": 1
      }
    },
    {
      "type": "Feature",
      "geometry": {
        "type": "Point",
        "coordinates": [
          120.6492,
          24.13082
        ]
      },
      "properties": {
        "name": "iBike1.0_文心南六大墩南路口",
        "name_eng": "iBike1.0_Wenxin S.6th Rd./Dadun S. Rd",
        "addr": "Wenxin S. 6th Rd & Ln. 171, Wenxin S. 6th Rd Intersection",
        "addr_cht": "文心南六路/文心南六路171巷口",
        "capacity": 28,
        "ServiceType": 1
      }
    },
    {
      "type": "Feature",
      "geometry": {
        "type": "Point",
        "coordinates": [
          120.60709,
          24.19398
        ]
      },
      "properties": {
        "name": "iBike1.0_國安國小",
        "name_eng": "iBike1.0_Guo An Elementary School",
        "addr": "Sec. 1, Dongda Rd & Guo’an 1st Rd Intersection",
        "addr_cht": "東大路一段/國安一路口",
        "capacity": 20,
        "ServiceType": 1
      }
    },
    {
      "type": "Feature",
      "geometry": {
        "type": "Point",
        "coordinates": [
          120.72322,
          24.16547
        ]
      },
      "properties": {
        "name": "iBike1.0_祥和公園",
        "name_eng": "iBike1.0_Xiang He Park",
        "addr": "Junfu 7th Rd & Sec. 1, Jianhe Rd Intersection",
        "addr_cht": "軍福七路/建和路一段口",
        "capacity": 20,
        "ServiceType": 1
      }
    },
    {
      "type": "Feature",
      "geometry": {
        "type": "Point",
        "coordinates": [
          120.67369,
          24.12043
        ]
      },
      "properties": {
        "name": "iBike1.0_國立中興大學(中興湖)",
        "name_eng": "iBike1.0_National Chung Hsing University( Chung Hsing lake)",
        "addr": "\"Zhongxing Rd & Hongdao  Rd Intersection(National Chung Hsing University( Chung Hsing lake))\"",
        "addr_cht": "中興路/弘道路口(國立中興大學(中興湖))",
        "capacity": 26,
        "ServiceType": 1
      }
    },
    {
      "type": "Feature",
      "geometry": {
        "type": "Point",
        "coordinates": [
          120.74164,
          24.33059
        ]
      },
      "properties": {
        "name": "iBike1.0_新泰安火車站",
        "name_eng": "iBike1.0_Tai'an Railway Station",
        "addr": "Fu’an Rd & Anmei Rd Intersection",
        "addr_cht": "福安路/安眉路口",
        "capacity": 18,
        "ServiceType": 1
      }
    },
    {
      "type": "Feature",
      "geometry": {
        "type": "Point",
        "coordinates": [
          120.748,
          24.32256
        ]
      },
      "properties": {
        "name": "iBike1.0_泰安鐵道文化園區",
        "name_eng": "iBike1.0_Taian Railway Cultural Park",
        "addr": "Fuxing Rd & Anmei Rd Intersection",
        "addr_cht": "福興路/安眉路口",
        "capacity": 20,
        "ServiceType": 1
      }
    },
    {
      "type": "Feature",
      "geometry": {
        "type": "Point",
        "coordinates": [
          120.64747,
          24.11859
        ]
      },
      "properties": {
        "name": "iBike1.0_大慶火車站",
        "name_eng": "iBike1.0_Daqing Railway Station",
        "addr": "Sec. 1, Jianguo S. Rd. & Sec. 2, Daqing St. Intersection",
        "addr_cht": "建國南路一段/大慶街二段口",
        "capacity": 32,
        "ServiceType": 1
      }
    },
    {
      "type": "Feature",
      "geometry": {
        "type": "Point",
        "coordinates": [
          120.70605,
          24.2116
        ]
      },
      "properties": {
        "name": "iBike1.0_潭子火車站",
        "name_eng": "iBike1.0_Tanzi Railway Station",
        "addr": "Sec. 2, Tanxing Rd & Sec. 2, Zhongshan Rd Intersection",
        "addr_cht": "潭興路二段/中山路二段口",
        "capacity": 24,
        "ServiceType": 1
      }
    },
    {
      "type": "Feature",
      "geometry": {
        "type": "Point",
        "coordinates": [
          120.70472,
          24.24451
        ]
      },
      "properties": {
        "name": "iBike1.0_社皮公園",
        "name_eng": "iBike1.0_Shepi Park",
        "addr": "Xishi 1st St & Shexing 5th St Intersection",
        "addr_cht": "西勢一街/社興五街口",
        "capacity": 20,
        "ServiceType": 1
      }
    },
    {
      "type": "Feature",
      "geometry": {
        "type": "Point",
        "coordinates": [
          120.6426,
          24.15139
        ]
      },